{
  "source": "https://www.google.com/maps/d/u/0/viewer?mid=1NrKT9tt74PDeKaq9aFQ4FQZjSrVU9j4",
  "sourceName": "Global Buddhist & Dharma Centers",
  "sourceCredit": "Shambhala Publications, Office of Tibet, dhamma.org, BuddhaNet, Wolf K, Wikipedia",
  "count": 2824,
  "places": [
    {
      "id": "5fa08c1f5ad9",
      "name": "782 Dojo",
      "lat": -34.996496,
      "lng": -64.967282,
      "tradition": "Buddhist",
      "faith": "Buddhist",
      "type": "Center",
      "folder": "BuddhaNet (Argentina)",
      "address": "Blandengues 782 Bahia Blanca, Argentina 8000",
      "phone": null,
      "website": "http://mapof.it/Blandengues"
    },
    {
      "id": "74d8d0aa0ad0",
      "name": "96th Street Sangha",
      "lat": 40.712728,
      "lng": -74.006015,
      "tradition": "Buddhist",
      "faith": "Buddhist",
      "type": "Center",
      "folder": "BuddhaNet (United States of America)",
      "address": "275 W. 96th Street, #4C New York, NY 10025 NY",
      "phone": "(212) 749-1127",
      "website": "http://mapof.it/275"
    },
    {
      "id": "3000f618a279",
      "name": "A Compassionate Mind Sangha",
      "lat": 43.97928,
      "lng": -120.737257,
      "tradition": "Zen",
      "faith": "Buddhist",
      "type": "Center",
      "folder": "BuddhaNet (United States of America)",
      "address": "5090 Center Street. Salem OR 97317",
      "phone": "503 949-3188",
      "website": "http://mapof.it/5090"
    },
    {
      "id": "3d523604b3bc",
      "name": "A.B.E.N Dorje Nyingpo - Paris",
      "lat": 46.603354,
      "lng": 1.888334,
      "tradition": "Buddhist",
      "faith": "Buddhist",
      "type": "Center",
      "folder": "BuddhaNet (France)",
      "address": "A.B.E.N c/o Genevieve Grison 25, Rue Mouraud, 75020 Paris Paris",
      "phone": "01 43 48 32 50",
      "website": "http://mapof.it/A.B.E.N"
    },
    {
      "id": "0baa095fca1f",
      "name": "A.Z.I. Association Zen Internationale - Les Montils",
      "lat": 46.603354,
      "lng": 1.888334,
      "tradition": "Zen",
      "faith": "Buddhist",
      "type": "Center",
      "folder": "BuddhaNet (France)",
      "address": "Principal Temple, Temple Zendonien Tai Sei Bukkyo Dai Ichi La Gendronni\u00c3\u00a8re Commune De Valaire 41120 Les Montils",
      "phone": "02 54 44 04 86 or 02 54 44 03 44",
      "website": "http://mapof.it/Principal"
    },
    {
      "id": "530cba917fe1",
      "name": "Aanand Buddha Vihar",
      "lat": 23.814342,
      "lng": 77.534072,
      "tradition": "Theravada",
      "faith": "Buddhist",
      "type": "Center",
      "folder": "BuddhaNet (India)",
      "address": "BANGANGA, North T.T.NAGAR, near NEW MARKET, BHOPLA Madhya Pradesh 462001",
      "phone": "9425680243",
      "website": "http://mapof.it/BANGANGA"
    },
    {
      "id": "c038c9edfda4",
      "name": "Aberystwyth Buddhist Group",
      "lat": 54.702354,
      "lng": -3.276575,
      "tradition": "Buddhist",
      "faith": "Buddhist",
      "type": "Center",
      "folder": "BuddhaNet (United Kingdom)",
      "address": "Merched y Wawr, Vulcan Street Aberystwyth Wales",
      "phone": "01970 625762 (Ian) or 01970 627356 (Maurice)",
      "website": "http://mapof.it/Merched"
    },
    {
      "id": "7937cfc792bc",
      "name": "Abhayagiri Buddhist Monastery",
      "lat": 39.364948,
      "lng": -123.232699,
      "tradition": "Southeast Asian",
      "faith": "Buddhist",
      "type": "Monastery",
      "folder": "Thai, Burmese, Lao, Cambodian, and Sri Lankan Temple",
      "address": "Tomki Road, California, 95470",
      "phone": "+1 707-485-1630",
      "website": "https://www.abhayagiri.org/"
    },
    {
      "id": "184e2b51ae8d",
      "name": "Abhayagiri Sangha Foundation",
      "lat": 7.555494,
      "lng": 80.713785,
      "tradition": "Theravada",
      "faith": "Buddhist",
      "type": "Center",
      "folder": "BuddhaNet (Sri Lanka)",
      "address": "Purana Maha Viharaya, Kabiliyapola Hakmana, Southern Province, Sri Lanka",
      "phone": null,
      "website": "http://mapof.it/Purana"
    },
    {
      "id": "a77ea25e301f",
      "name": "Aburkhil Janakalyan Samiti-Bangladesh",
      "lat": 24.476929,
      "lng": 90.293441,
      "tradition": "Theravada",
      "faith": "Buddhist",
      "type": "Center",
      "folder": "BuddhaNet (Bangladesh)",
      "address": "GPO Box No. 1054 Chittagong 4000, Bangladesh",
      "phone": null,
      "website": "http://mapof.it/GPO"
    },
    {
      "id": "f1b507d1401a",
      "name": "Achtsamkeit im Alltag (Haus Avalokita) Brande",
      "lat": 51.163818,
      "lng": 10.447831,
      "tradition": "Buddhist",
      "faith": "Buddhist",
      "type": "Center",
      "folder": "BuddhaNet (Germany)",
      "address": "25364 Brande, Dorfstr. 5",
      "phone": null,
      "website": "http://mapof.it/25364"
    },
    {
      "id": "4d46dc3c5607",
      "name": "Adelaide Zen Group",
      "lat": -30.534367,
      "lng": 135.630121,
      "tradition": "Zen",
      "faith": "Buddhist",
      "type": "Center",
      "folder": "BuddhaNet (Australia)",
      "address": "SA",
      "phone": null,
      "website": "\">via"
    },
    {
      "id": "578dadddeeb3",
      "name": "Adhar Manik Kalayan Vihar",
      "lat": 24.476929,
      "lng": 90.293441,
      "tradition": "Theravada",
      "faith": "Buddhist",
      "type": "Center",
      "folder": "BuddhaNet (Bangladesh)",
      "address": "Vill: Adhar Manik, (Janulotheker Bari), Post: Natun Bazar, Police Station: Raozan,District: Chittagong, Bangladesh. Chittagong 4000",
      "phone": "088-01717-297232",
      "website": "http://mapof.it/Vill:"
    },
    {
      "id": "7dfecd6c1792",
      "name": "Agrasara Memorial Society of Bangladesh",
      "lat": 24.476929,
      "lng": 90.293441,
      "tradition": "Buddhist",
      "faith": "Buddhist",
      "type": "Center",
      "folder": "BuddhaNet (Bangladesh)",
      "address": "Sudarshan Vihar GPO Box No. 491 Chittagong, Bangladesh",
      "phone": "(880) 209777",
      "website": "http://mapof.it/Sudarshan"
    },
    {
      "id": "868af10554b7",
      "name": "Akademie f\u00c3\u00bcr Buddhistische Grundlagenforschung (AFBGF) - Neckargem\u00c3\u00bcnd",
      "lat": 51.163818,
      "lng": 10.447831,
      "tradition": "Buddhist",
      "faith": "Buddhist",
      "type": "Center",
      "folder": "BuddhaNet (Germany)",
      "address": "69151 Neckargem\u00c3\u00bcnd, Dreikreuzweg 27",
      "phone": null,
      "website": "http://mapof.it/69151"
    },
    {
      "id": "7e11a4f24654",
      "name": "Akhil Bhartiya Boudha Maha Sangha, Mumbai",
      "lat": 19.567032,
      "lng": 76.416456,
      "tradition": "Theravada",
      "faith": "Buddhist",
      "type": "Center",
      "folder": "BuddhaNet (India)",
      "address": "Aamrpali Bouddha Vihar Matang Rushi Nagar 20,Ft.Road Mandala Mankhurd Mumbai Maharashtra 400043",
      "phone": "09869618324 and 09869606207",
      "website": "http://mapof.it/Aamrpali"
    },
    {
      "id": "5373f64e7b5d",
      "name": "Akil Bhartiya Bhikshu Maha Sangha (Great Unity of Indian Monks)",
      "lat": 22.351115,
      "lng": 78.667743,
      "tradition": "Buddhist",
      "faith": "Buddhist",
      "type": "Center",
      "folder": "BuddhaNet (India)",
      "address": "Sangharam Buddha Vihara, 3 Dr.Ambedkar Marg, Main Loni Road, Opp. Petrol Pump, Shahdara, New Delhi New Delhi 110 093",
      "phone": "0091 98 3703 0809 / 99 3172 5018",
      "website": "http://mapof.it/Sangharam"
    },
    {
      "id": "32c1adfea7a8",
      "name": "Akshi Yogashala",
      "lat": 30.108654,
      "lng": 78.291619,
      "tradition": "Buddhist",
      "faith": "Buddhist",
      "type": "Center",
      "folder": "Wolf K Asia Retreats (India)",
      "address": "Rishikesh.",
      "phone": null,
      "website": "https://www.akshiyogashala.org/"
    },
    {
      "id": "d543ca60aafc",
      "name": "Alabama Buddhist Meditation (Vihara)",
      "lat": 33.258882,
      "lng": -86.829534,
      "tradition": "Theravada",
      "faith": "Buddhist",
      "type": "Monastery",
      "folder": "BuddhaNet (United States of America)",
      "address": "1217 Xavier Street Birmingham AL 35224",
      "phone": "7275040518",
      "website": "http://mapof.it/1217"
    },
    {
      "id": "7153ec2900c5",
      "name": "Alabama Buddhist Vihara meditation center",
      "lat": 33.559424,
      "lng": -86.265754,
      "tradition": "Southeast Asian",
      "faith": "Buddhist",
      "type": "Monastery",
      "folder": "Thai, Burmese, Lao, Cambodian, and Sri Lankan Temple",
      "address": "Hardwick Road, Pell City, Alabama, 32125",
      "phone": null,
      "website": null
    },
    {
      "id": "e4e96517d5ee",
      "name": "Albuquerque Karma Thegsum Choling",
      "lat": 35.14302,
      "lng": -106.633805,
      "tradition": "Tibetan",
      "faith": "Buddhist",
      "type": "Center",
      "folder": "Tibetan",
      "address": "131 La Plata Road Northwest, Albuquerque, New Mexico, 87107",
      "phone": null,
      "website": null
    },
    {
      "id": "54e272e28de2",
      "name": "Albuquerque Zen Center",
      "lat": 35.073388,
      "lng": -106.620952,
      "tradition": "Zen",
      "faith": "Buddhist",
      "type": "Center",
      "folder": "Zen, Chan, Son, & Thien,",
      "address": "2300 Garfield Avenue Southeast, Albuquerque, New Mexico, 87106",
      "phone": "+1-505-268-4877",
      "website": "https://www.azc.org/"
    },
    {
      "id": "a9afeb87b704",
      "name": "Alipore Ashoke Club(Buddhaviher)",
      "lat": 22.351115,
      "lng": 78.667743,
      "tradition": "Buddhist",
      "faith": "Buddhist",
      "type": "Center",
      "folder": "BuddhaNet (India)",
      "address": "B/62/H/1,Chetla Road,P.O-Alipore Kolkata 700027",
      "phone": "9339744430",
      "website": "http://mapof.it/B/62/H/1,Chetla"
    },
    {
      "id": "44cc26fc4ea8",
      "name": "Aliswar Buddhist Youth Development Organization and Aliswar Santiniketan Buddhist Monastery",
      "lat": 24.476929,
      "lng": 90.293441,
      "tradition": "Buddhist",
      "faith": "Buddhist",
      "type": "Monastery",
      "folder": "BuddhaNet (Bangladesh)",
      "address": "Village-Aliswar, Post office-Aliswar, Police Station-Laksam, District-Comilla, Bangladesh",
      "phone": "(0088) 0171104150",
      "website": "http://mapof.it/Village-Aliswar"
    },
    {
      "id": "6ca6cc9d41b4",
      "name": "All Assam Buddhist Association",
      "lat": 26.407384,
      "lng": 93.25513,
      "tradition": "Theravada",
      "faith": "Buddhist",
      "type": "Center",
      "folder": "BuddhaNet (India)",
      "address": "(President)Balijan Buddhist Temple P.O. Kharikatia (Gen. Secy)Jorhat Buddhist Temple P.O. Rajabari Jorhat Assam 785 014",
      "phone": "94350 50261",
      "website": "http://mapof.it/(President)Balijan"
    },
    {
      "id": "3d96fce15cf2",
      "name": "All Buddhist Congress",
      "lat": 11.332372,
      "lng": 78.609864,
      "tradition": "Buddhist",
      "faith": "Buddhist",
      "type": "Center",
      "folder": "BuddhaNet (India)",
      "address": "Sakthi Nagar, Kavundampalayam, India Coimbatore, Tamil Nadu 641033 Tamil Nadu",
      "phone": null,
      "website": "http://mapof.it/Sakthi"
    },
    {
      "id": "42b121ea7abb",
      "name": "All Colombia Courses",
      "lat": 4.099917,
      "lng": -72.908813,
      "tradition": "Theravada",
      "faith": "Buddhist",
      "type": "Meditation Center",
      "folder": "Goenka Vipassana (dhamma.org)",
      "address": "Colombia",
      "phone": null,
      "website": null,
      "schools": [
        "vipassana"
      ]
    },
    {
      "id": "f3e5b8584f05",
      "name": "All India Youth Monk Association",
      "lat": 22.351115,
      "lng": 78.667743,
      "tradition": "Theravada",
      "faith": "Buddhist",
      "type": "Center",
      "folder": "BuddhaNet (India)",
      "address": "Myanmar Buddhist Temple Kusinagar, PO & Disst. Kusinagar Up India 274403",
      "phone": "0091-5564-271035, 272012",
      "website": "http://mapof.it/Myanmar"
    },
    {
      "id": "a971e097ac9c",
      "name": "All Mexico Courses",
      "lat": 23.658512,
      "lng": -102.00771,
      "tradition": "Theravada",
      "faith": "Buddhist",
      "type": "Meditation Center",
      "folder": "Goenka Vipassana (dhamma.org)",
      "address": "Mexico",
      "phone": null,
      "website": null,
      "schools": [
        "vipassana"
      ]
    },
    {
      "id": "a90448294a24",
      "name": "Alliston Shambhala Meditation Group",
      "lat": 50.000678,
      "lng": -86.000977,
      "tradition": "Buddhist",
      "faith": "Buddhist",
      "type": "Meditation Center",
      "folder": "BuddhaNet (Canada)",
      "address": "92 Wellington Street W. Alliston, ON L0M 1A0 Ontario",
      "phone": "(705) 435-9647",
      "website": "http://mapof.it/92"
    },
    {
      "id": "030c0abf73bc",
      "name": "Altbuddhistische Gemeinde e.V. - Utting",
      "lat": 51.163818,
      "lng": 10.447831,
      "tradition": "Buddhist",
      "faith": "Buddhist",
      "type": "Center",
      "folder": "BuddhaNet (Germany)",
      "address": "86919 Utting / Ammersee, Zur Ludwigsh\u00c3\u00b6he 30",
      "phone": "08806-7507, Fax 7507",
      "website": "http://mapof.it/86919"
    },
    {
      "id": "6d9b15c798f3",
      "name": "Amar Bodhi Buddha Vihara",
      "lat": 22.351115,
      "lng": 78.667743,
      "tradition": "Buddhist",
      "faith": "Buddhist",
      "type": "Monastery",
      "folder": "BuddhaNet (India)",
      "address": "Gharshala road, behind railway pata, wadhwan. Surendranagar. Gujrat. India. 363030 Surendranagar 363030",
      "phone": "9979868972",
      "website": "http://mapof.it/Gharshala"
    },
    {
      "id": "82d6a6829829",
      "name": "Amazenji",
      "lat": 55.001251,
      "lng": -125.002441,
      "tradition": "Zen",
      "faith": "Buddhist",
      "type": "Center",
      "folder": "BuddhaNet (Canada)",
      "address": "RR2, Site 11E, Comp 3, Burns Lake, BC VOJ 1EO BC",
      "phone": "(250) 694-3630",
      "website": "http://mapof.it/RR2"
    },
    {
      "id": "b4aeb38bf09c",
      "name": "American Buddhist Association & Harmony Zen Center",
      "lat": 40.079661,
      "lng": -89.433729,
      "tradition": "Zen",
      "faith": "Buddhist",
      "type": "Center",
      "folder": "BuddhaNet (United States of America)",
      "address": "4524 N. Richmond Street, Chicago, IL 60625 IL",
      "phone": "(773) 583-5794",
      "website": "http://mapof.it/4524"
    },
    {
      "id": "30c9bf44935c",
      "name": "American Buddhist Confederation & Eastern Buddhist Association",
      "lat": 40.712728,
      "lng": -74.006015,
      "tradition": "Buddhist",
      "faith": "Buddhist",
      "type": "Center",
      "folder": "BuddhaNet (United States of America)",
      "address": "83 Division Street, New York, NY 10002 NY",
      "phone": "(03) 5156 7240",
      "website": "http://mapof.it/83"
    },
    {
      "id": "02a65bd64493",
      "name": "American Buddhist Fellowship - Mei Fo Temple (\u7f8e\u4f5b\u5bfa)",
      "lat": 36.701463,
      "lng": -118.755997,
      "tradition": "Mahayana",
      "faith": "Buddhist",
      "type": "Temple",
      "folder": "BuddhaNet (United States of America)",
      "address": "1032 South 1st Street Alhambra CA 91801",
      "phone": "(626) 213-4563",
      "website": "http://mapof.it/1032"
    },
    {
      "id": "3a87c2bf4fb1",
      "name": "American Buddhist Meditation temple",
      "lat": 34.420786,
      "lng": -119.805812,
      "tradition": "Southeast Asian",
      "faith": "Buddhist",
      "type": "Temple",
      "folder": "Thai, Burmese, Lao, Cambodian, and Sri Lankan Temple",
      "address": "1251 Orchid Drive, California, 93111",
      "phone": null,
      "website": null
    },
    {
      "id": "2fbb33cbafc1",
      "name": "American Young Buddhist Association",
      "lat": 36.701463,
      "lng": -118.755997,
      "tradition": "Buddhist",
      "faith": "Buddhist",
      "type": "Center",
      "folder": "BuddhaNet (United States of America)",
      "address": "3456 Glenmark Drive Hacienda Heights CA 91745",
      "phone": null,
      "website": "http://mapof.it/3456"
    },
    {
      "id": "c735a55d695a",
      "name": "Amida Society",
      "lat": 36.701463,
      "lng": -118.755997,
      "tradition": "Buddhist",
      "faith": "Buddhist",
      "type": "Center",
      "folder": "BuddhaNet (United States of America)",
      "address": "5918 Cloverly Avenue Temple City CA 91780",
      "phone": null,
      "website": "http://mapof.it/5918"
    },
    {
      "id": "904d4eb06bf7",
      "name": "Amitabha Buddhist Society",
      "lat": 40.756201,
      "lng": -73.82896,
      "tradition": "Pure Land",
      "faith": "Buddhist",
      "type": "Center",
      "folder": "Pure Land, Soka Gakkai, Jodo Shin",
      "address": "41-60 Main Street, New York, New York, 11355",
      "phone": null,
      "website": null
    },
    {
      "id": "f2dae2d1fc7a",
      "name": "Amitabha Buddhist Society of Houston",
      "lat": 31.26389,
      "lng": -98.545612,
      "tradition": "Buddhist",
      "faith": "Buddhist",
      "type": "Center",
      "folder": "BuddhaNet (United States of America)",
      "address": "8121 Westglen Houston, TX 77063 TX",
      "phone": null,
      "website": "http://mapof.it/8121"
    },
    {
      "id": "403be6b3a776",
      "name": "Amitabha Buddhist Society of Oregon",
      "lat": 45.491881,
      "lng": -122.809445,
      "tradition": "Pure Land",
      "faith": "Buddhist",
      "type": "Center",
      "folder": "Pure Land, Soka Gakkai, Jodo Shin",
      "address": "3800 Southwest Rose Biggi Avenue, Beaverton, Oregon, 97005",
      "phone": null,
      "website": null
    },
    {
      "id": "61116e452f10",
      "name": "Amitabha Foundation Canada",
      "lat": 49.284011,
      "lng": -123.015547,
      "tradition": "Buddhist",
      "faith": "Buddhist",
      "type": "Center",
      "folder": "Office of Tibet (Canada)",
      "address": "4025 Triumph Street, Burnaby, BC",
      "phone": "(647) 909-3288",
      "website": null
    },
    {
      "id": "4f1a9b54fe65",
      "name": "Amitabha Society of Canada",
      "lat": 55.001251,
      "lng": -125.002441,
      "tradition": "Buddhist",
      "faith": "Buddhist",
      "type": "Center",
      "folder": "BuddhaNet (Canada)",
      "address": "Pure Land Learning Center 855 W. 47th Avenue, Vancouver BC V5Z 2R7 BC",
      "phone": "(604) 266-1916",
      "website": "http://mapof.it/Pure"
    },
    {
      "id": "93880c03c454",
      "name": "Amitabha Society of Huntsville",
      "lat": 33.258882,
      "lng": -86.829534,
      "tradition": "Buddhist",
      "faith": "Buddhist",
      "type": "Center",
      "folder": "BuddhaNet (United States of America)",
      "address": "985 Heatherwood Drive, Huntsville, AL 35802 U.S.A. AL",
      "phone": "(205) 883-4555",
      "website": "http://mapof.it/985"
    },
    {
      "id": "3fae56b2f9ee",
      "name": "Amitabha Society of Las Vegas",
      "lat": 39.515882,
      "lng": -116.853722,
      "tradition": "Buddhist",
      "faith": "Buddhist",
      "type": "Center",
      "folder": "BuddhaNet (United States of America)",
      "address": "3375 S. Decatur, #19 Las Vegas NV 89102",
      "phone": "(702) 252-3042",
      "website": "http://mapof.it/3375"
    },
    {
      "id": "a7cc2a8861be",
      "name": "Amitabha Society of Madison",
      "lat": 44.430898,
      "lng": -89.688464,
      "tradition": "Mahayana",
      "faith": "Buddhist",
      "type": "Center",
      "folder": "BuddhaNet (United States of America)",
      "address": "9 Rough Lee Court, Madison, WI 53705 U.S.A. WI",
      "phone": "(608) 233-0552",
      "website": "http://mapof.it/9"
    },
    {
      "id": "53256afda8fc",
      "name": "Amitabha Stupa and Peace Park",
      "lat": 34.875499,
      "lng": -111.808402,
      "tradition": "Tibetan",
      "faith": "Buddhist",
      "type": "Center",
      "folder": "Tibetan",
      "address": "Thunder Mountain Trail, Sedona, Arizona, 86446",
      "phone": null,
      "website": null
    },
    {
      "id": "dc1bd4188c52",
      "name": "Amma\u2019s Ashram",
      "lat": 9.088242,
      "lng": 76.487872,
      "tradition": "Buddhist",
      "faith": "Buddhist",
      "type": "Ashram",
      "folder": "Wolf K Asia Retreats (India)",
      "address": "Amritapuri, Kerala.",
      "phone": null,
      "website": "https://www.amritapuri.org/ashram"
    },
    {
      "id": "f53f435824f6",
      "name": "Amrita Dzong Frankfurt",
      "lat": 51.163818,
      "lng": 10.447831,
      "tradition": "Buddhist",
      "faith": "Buddhist",
      "type": "Center",
      "folder": "BuddhaNet (Germany)",
      "address": "63067 Offenbach, Geleitstr. 92 Frankfurt",
      "phone": null,
      "website": "http://mapof.it/63067"
    },
    {
      "id": "4e080c944e61",
      "name": "Amsterdam Zen Group",
      "lat": 52.243498,
      "lng": 5.634323,
      "tradition": "Zen",
      "faith": "Buddhist",
      "type": "Center",
      "folder": "BuddhaNet (Netherlands)",
      "address": "Feike de Boerlaan 3 Amsterdam 1019 KS Netherlands",
      "phone": null,
      "website": "http://mapof.it/Feike"
    },
    {
      "id": "4cf6e018ef57",
      "name": "An Bang Buddhist Temple",
      "lat": 39.700044,
      "lng": -105.057447,
      "tradition": "Chinese",
      "faith": "Buddhist",
      "type": "Temple",
      "folder": "Chinese Temple",
      "address": "5400 West Kentucky Avenue, Lakewood, Colorado, 80226",
      "phone": null,
      "website": null
    },
    {
      "id": "d2514b1edf7f",
      "name": "An Lac Hanh Buddhist Temple",
      "lat": 28.030319,
      "lng": -82.41468,
      "tradition": "Vietnamese",
      "faith": "Buddhist",
      "type": "Temple",
      "folder": "Vietnamese Temples",
      "address": "8786 North Orangeview Avenue, Tampa, Florida, 33617",
      "phone": null,
      "website": null
    },
    {
      "id": "29feedc6a3ee",
      "name": "An L\u1ea1c Temple",
      "lat": 40.805058,
      "lng": -96.722168,
      "tradition": "Vietnamese",
      "faith": "Buddhist",
      "type": "Temple",
      "folder": "Vietnamese Temples",
      "address": "216 West F Street, Lincoln, Nebraska, 68508",
      "phone": "+1-402-742-6713",
      "website": null
    },
    {
      "id": "8b49ff44afb4",
      "name": "An Quang Buddhist Temple",
      "lat": 33.555472,
      "lng": -86.778676,
      "tradition": "Vietnamese",
      "faith": "Buddhist",
      "type": "Temple",
      "folder": "Vietnamese Temples",
      "address": "4000 East Lake Boulevard, Birmingham, Alabama, 35212",
      "phone": "+18642790549",
      "website": null
    },
    {
      "id": "e876082b7224",
      "name": "Anand Prakash Yoga Ashram",
      "lat": 30.108654,
      "lng": 78.291619,
      "tradition": "Buddhist",
      "faith": "Hindu",
      "type": "Ashram",
      "folder": "Wolf K Asia Retreats (India)",
      "address": "Rishikesh.",
      "phone": null,
      "website": "https://anandprakashyogaashram.com/"
    },
    {
      "id": "668e7ad058dc",
      "name": "Ananda Buddha Vihara Trust",
      "lat": 22.351115,
      "lng": 78.667743,
      "tradition": "Theravada",
      "faith": "Buddhist",
      "type": "Monastery",
      "folder": "BuddhaNet (India)",
      "address": "Mahendra Hills Secunderbad Andhra Pradesh 500 026",
      "phone": "0091-40-27733161/ 27733461, 0091-9441038801",
      "website": "http://mapof.it/Mahendra"
    },
    {
      "id": "3917d9549c10",
      "name": "Ananda Vihara",
      "lat": 24.476929,
      "lng": 90.293441,
      "tradition": "Theravada",
      "faith": "Buddhist",
      "type": "Monastery",
      "folder": "BuddhaNet (Bangladesh)",
      "address": "Tablechari,Rangamati Municipality, Rangamati-4500 0351",
      "phone": "88-0351-62395",
      "website": "http://mapof.it/Tablechari,Rangamati"
    },
    {
      "id": "6818d2fb1782",
      "name": "Anandashram",
      "lat": 12.31356,
      "lng": 75.092463,
      "tradition": "Buddhist",
      "faith": "Buddhist",
      "type": "Ashram",
      "folder": "Wolf K Asia Retreats (India)",
      "address": "Kanhangad, Kerala.",
      "phone": null,
      "website": "http://www.anandashram.org/"
    },
    {
      "id": "aede7077ad13",
      "name": "Anchorage Zen Center",
      "lat": 64.445961,
      "lng": -149.680909,
      "tradition": "Zen",
      "faith": "Buddhist",
      "type": "Center",
      "folder": "BuddhaNet (United States of America)",
      "address": "2401 Susitna, Anchorage, AK 99517 AK",
      "phone": "(907) 248-1049",
      "website": "http://mapof.it/2401"
    },
    {
      "id": "fff4c867a232",
      "name": "Ann Arbor Karma Thegsum Choling",
      "lat": 43.621195,
      "lng": -84.682435,
      "tradition": "Buddhist",
      "faith": "Buddhist",
      "type": "Center",
      "folder": "BuddhaNet (United States of America)",
      "address": "614 Miner Street, Ann Arbor, MI 48103 MI",
      "phone": "(734) 761-7495",
      "website": "http://mapof.it/614"
    },
    {
      "id": "297c8e1294d5",
      "name": "Annapolis Royal Shambhala Meditation Group",
      "lat": 45.19604,
      "lng": -63.165379,
      "tradition": "Buddhist",
      "faith": "Buddhist",
      "type": "Meditation Center",
      "folder": "BuddhaNet (Canada)",
      "address": "RR#2, Box 2047A Granville Ferry, NS B0S 1K0 Nova Scotia",
      "phone": "(902) 532-7189",
      "website": "http://mapof.it/RR#2"
    },
    {
      "id": "30c7904a654c",
      "name": "Anoma Cultural Association",
      "lat": 24.476929,
      "lng": 90.293441,
      "tradition": "Theravada",
      "faith": "Buddhist",
      "type": "Center",
      "folder": "BuddhaNet (Bangladesh)",
      "address": "EUREKA,Flat#4A, 83, S S Khaled Road, Jamal Khan CHITTAGONG 4000",
      "phone": "+88 - 01715 444488",
      "website": "http://mapof.it/EUREKA,Flat#4A"
    },
    {
      "id": "1b055b4d7932",
      "name": "Aranya Giman Hala Charitable Trust",
      "lat": 7.555494,
      "lng": 80.713785,
      "tradition": "Buddhist",
      "faith": "Buddhist",
      "type": "Center",
      "folder": "BuddhaNet (Sri Lanka)",
      "address": "'ARANA BHIKKHU GIMAN HALA' 949/4/8 - PRIME RESIDENCIES, T C GARDEN ROAD, OFF PANNIPITIYA ROAD, Battaramulla 10120",
      "phone": "0773146243",
      "website": "http://mapof.it/'ARANA"
    },
    {
      "id": "ce2875ad7067",
      "name": "Arcata Zen Group",
      "lat": 36.701463,
      "lng": -118.755997,
      "tradition": "Zen",
      "faith": "Buddhist",
      "type": "Center",
      "folder": "BuddhaNet (United States of America)",
      "address": "740 Park Avenue Arcata CA 95521",
      "phone": null,
      "website": "http://mapof.it/740"
    },
    {
      "id": "24cdc370bcac",
      "name": "Ari Bh\u00f6d",
      "lat": 34.144371,
      "lng": -118.16144,
      "tradition": "Tibetan",
      "faith": "Buddhist",
      "type": "Center",
      "folder": "Tibetan",
      "address": "West Green Street, Pasadena, California, 91184",
      "phone": "+1-626-449-3470",
      "website": "https://www.neighborhooduu.org/;http://neighborhooduu.org/"
    },
    {
      "id": "fb0d3f99d121",
      "name": "Arizona Buddhist Fellowship",
      "lat": 34.395342,
      "lng": -111.763275,
      "tradition": "Theravada",
      "faith": "Buddhist",
      "type": "Center",
      "folder": "BuddhaNet (United States of America)",
      "address": "1827 N Tyndall Avenue Tucson AZ 85719",
      "phone": "(520) 305-9349",
      "website": "http://mapof.it/1827"
    },
    {
      "id": "f2a4d8785c76",
      "name": "Arizona Buddhist Temple",
      "lat": 33.492579,
      "lng": -112.149134,
      "tradition": "Pure Land",
      "faith": "Buddhist",
      "type": "Temple",
      "folder": "Pure Land, Soka Gakkai, Jodo Shin",
      "address": "4142 West Clarendon Avenue, Phoenix, Arizona, 85019",
      "phone": null,
      "website": "https://www.azbuddhisttemple.org/"
    },
    {
      "id": "ca80fcf9107a",
      "name": "Arizona International Buddhist Meditation Center INCORPORATION",
      "lat": 33.406928,
      "lng": -111.811064,
      "tradition": "Theravada",
      "faith": "Buddhist",
      "type": "Meditation Center",
      "folder": "Insight, Theravada, Vipassanna",
      "address": "432 South Temple Street, Mesa, Arizona, 85204",
      "phone": null,
      "website": "https://www.pbcaz.org/"
    },
    {
      "id": "648cd42da939",
      "name": "Armidale Meditation Group",
      "lat": -32.162951,
      "lng": 147.032057,
      "tradition": "Buddhist",
      "faith": "Buddhist",
      "type": "Meditation Center",
      "folder": "BuddhaNet (Australia)",
      "address": "96 Brown Street ARMIDALE NSW 2350",
      "phone": "(02) 6273 2382",
      "website": "http://mapof.it/96"
    },
    {
      "id": "439828d224b6",
      "name": "Arunachal Pali Vidyapith",
      "lat": 22.351115,
      "lng": 78.667743,
      "tradition": "Theravada",
      "faith": "Buddhist",
      "type": "Center",
      "folder": "BuddhaNet (India)",
      "address": "Chonkham,Lohit District, Chongkham Arunachal Pradesh 792104",
      "phone": "+91-3806-222003",
      "website": "http://mapof.it/Chonkham,Lohit"
    },
    {
      "id": "ccce2473a596",
      "name": "Aryaloka Buddhist Retreat Center",
      "lat": 43.065693,
      "lng": -70.961298,
      "tradition": "Buddhist",
      "faith": "Buddhist",
      "type": "Center",
      "folder": "Other Buddhist Centers",
      "address": "14 Heartwood Circle, Newmarket, New Hampshire, 03857",
      "phone": "+1-603-659-5456",
      "website": "https://www.aryaloka.org/"
    },
    {
      "id": "aac25c9b98a2",
      "name": "Aryapala Meditation and Initation Centre",
      "lat": 46.825039,
      "lng": 103.849974,
      "tradition": "Mahayana",
      "faith": "Buddhist",
      "type": "Meditation Center",
      "folder": "BuddhaNet (Mongolia)",
      "address": "Baruun 4 zam, Lamrim Datsan Hiid Ulaanbaatar 976",
      "phone": "00976-99196898",
      "website": "http://mapof.it/Baruun"
    },
    {
      "id": "720af2bb7176",
      "name": "Asheville Shambhala Meditation Group",
      "lat": 35.672964,
      "lng": -79.039292,
      "tradition": "Tibetan",
      "faith": "Buddhist",
      "type": "Meditation Center",
      "folder": "BuddhaNet (United States of America)",
      "address": "36 Montview Drive, Asheville, NC 28801 NC",
      "phone": "(828) 253-3309",
      "website": "http://mapof.it/36"
    },
    {
      "id": "ff801ca4b672",
      "name": "Asheville Vipassana Group",
      "lat": 35.672964,
      "lng": -79.039292,
      "tradition": "Theravada",
      "faith": "Buddhist",
      "type": "Center",
      "folder": "BuddhaNet (United States of America)",
      "address": "Robert Wootton's house 92 Mt. Clare, Asheville, NC NC",
      "phone": null,
      "website": "http://mapof.it/Robert"
    },
    {
      "id": "0ebc7cc94150",
      "name": "ASHOK KANCHAN BOUDDHA VIHAR FOUNDATION & RESEARCH WELFARE SAMITI",
      "lat": 22.351115,
      "lng": 78.667743,
      "tradition": "Theravada",
      "faith": "Buddhist",
      "type": "Center",
      "folder": "BuddhaNet (India)",
      "address": "53,Mahavir Avenue,Fesh-2 ,Makshi Road,Ujjain MP Ujjain 456010",
      "phone": null,
      "website": "http://mapof.it/53,Mahavir"
    },
    {
      "id": "a8f848195c1f",
      "name": "Ashoka Vihara, Rima",
      "lat": 22.351115,
      "lng": 78.667743,
      "tradition": "Theravada",
      "faith": "Buddhist",
      "type": "Monastery",
      "folder": "BuddhaNet (India)",
      "address": "Village- Rima, Post office Nampong, District Changlang, Arunachal Pradesh Nampong Arunachal Pradesh 792 123",
      "phone": "+91-9436049474",
      "website": "http://mapof.it/Village-"
    },
    {
      "id": "3ab0b250b6a5",
      "name": "Ashoka-Buddhvihar",
      "lat": 23.814342,
      "lng": 77.534072,
      "tradition": "Theravada",
      "faith": "Buddhist",
      "type": "Center",
      "folder": "BuddhaNet (India)",
      "address": "Annanaga, Habibganj, BHEL Bhopal Madhya Pradesh 462 023",
      "phone": "+919425604632",
      "website": "http://mapof.it/Annanaga"
    },
    {
      "id": "c923ed288987",
      "name": "Ashokacharumati Buddha Vihara",
      "lat": 28.378046,
      "lng": 83.99999,
      "tradition": "Theravada",
      "faith": "Buddhist",
      "type": "Monastery",
      "folder": "BuddhaNet (Nepal)",
      "address": "Bhagawansthan-Chabahil Kathmandu 07, 21624 Nepal",
      "phone": "00977-1-4469897",
      "website": "http://mapof.it/Bhagawansthan-Chabahil"
    },
    {
      "id": "7b4bc6ad87e5",
      "name": "Ashwaghosha Buddhists Foundation (India)",
      "lat": 19.567032,
      "lng": 76.416456,
      "tradition": "Buddhist",
      "faith": "Buddhist",
      "type": "Center",
      "folder": "BuddhaNet (India)",
      "address": "Jeewak Welfare Society Premises, Naya Nakasha, Opposite Swastik School, Laskaribagh, NAGPUR 440017 (Maharashtra)India Nagpur Maharashtra 440017",
      "phone": "+91 6521931,3295622,2633106",
      "website": "http://mapof.it/Jeewak"
    },
    {
      "id": "f39e70b9413f",
      "name": "Asian Buddhist Conference for Peace",
      "lat": 46.825039,
      "lng": 103.849974,
      "tradition": "Buddhist",
      "faith": "Buddhist",
      "type": "Center",
      "folder": "BuddhaNet (Mongolia)",
      "address": "C/o Gandan Thekchenling Monastery Ulaanbaatar Mongolia",
      "phone": "360 0690",
      "website": "http://mapof.it/C/o"
    },
    {
      "id": "7d9af60ea18c",
      "name": "Asian Buddhist Cultural Centre",
      "lat": 25.644085,
      "lng": 85.906508,
      "tradition": "Theravada",
      "faith": "Buddhist",
      "type": "Center",
      "folder": "BuddhaNet (India)",
      "address": "Behind Big Buddha Statue, P.O.Bodhgaya,Dist.Gaya, Bihar State, India Bihar 824231",
      "phone": "91 - 631 - 2200478, 91- 631 - 2200824, Mobile: 9934687371",
      "website": "http://mapof.it/Behind"
    },
    {
      "id": "194cecf63497",
      "name": "Asian-American Meditation Center",
      "lat": 39.422519,
      "lng": -111.714358,
      "tradition": "Buddhist",
      "faith": "Buddhist",
      "type": "Meditation Center",
      "folder": "BuddhaNet (United States of America)",
      "address": "State Road 30 Mile Post 66 Park Valley UT 84436",
      "phone": "(801) 394-3744",
      "website": "http://mapof.it/State"
    },
    {
      "id": "3d87eb6af32c",
      "name": "Asociaci\u00c3\u00b3n Amigos del Budismo Theravada",
      "lat": -34.996496,
      "lng": -64.967282,
      "tradition": "Theravada",
      "faith": "Buddhist",
      "type": "Center",
      "folder": "BuddhaNet (Argentina)",
      "address": "celtibero2000ac Capital Federal",
      "phone": null,
      "website": "http://mapof.it/celtibero2000ac"
    },
    {
      "id": "7313f9ed99d5",
      "name": "Asociaci\u00c3\u00b3n Zen de Medell\u00c3\u00adn",
      "lat": 4.099917,
      "lng": -72.908813,
      "tradition": "Zen",
      "faith": "Buddhist",
      "type": "Center",
      "folder": "BuddhaNet (Colombia)",
      "address": "Edificio El Rect\u00c3\u00a1ngulo Calle 49b No. 64b-112 Oficina 501 piso 5 Medell\u00c3\u00adn, Colombia Medell\u00c3\u00adn",
      "phone": "+57 (4) 230 0971",
      "website": "http://mapof.it/Edificio"
    },
    {
      "id": "6b96c8d4af26",
      "name": "Asoka Mission Vihar",
      "lat": 22.351115,
      "lng": 78.667743,
      "tradition": "Theravada",
      "faith": "Buddhist",
      "type": "Center",
      "folder": "BuddhaNet (India)",
      "address": "Mehrauli New Delhi-110030 India",
      "phone": "11-6644470, 4620968, 4624628",
      "website": "http://mapof.it/Mehrauli"
    },
    {
      "id": "2382a2474ee7",
      "name": "Association Bouddhique Khm\u00e8re",
      "lat": 50.640281,
      "lng": 4.666715,
      "tradition": "Theravada",
      "faith": "Buddhist",
      "type": "Center",
      "folder": "BuddhaNet (Belgium)",
      "address": "Vatt Khemararam Rue Reimond Stijns, 79 - 1080 Bruxelles",
      "phone": "02 414 25 90 or 02 414 42 21",
      "website": "http://mapof.it/Vatt"
    },
    {
      "id": "4d2dad5ce4da",
      "name": "Association Bouddhiste Lao du Bas-Rhin",
      "lat": 46.603354,
      "lng": 1.888334,
      "tradition": "Buddhist",
      "faith": "Buddhist",
      "type": "Center",
      "folder": "BuddhaNet (France)",
      "address": "Clasbec - Temple Lao Vat Simoungkoune 5 rue Hansi 67460 Souffelweyerscheim",
      "phone": "03 88 81 97 38, 03 88 81 97 65",
      "website": "http://mapof.it/Clasbec"
    },
    {
      "id": "4a824115a0fc",
      "name": "Association Bouddhiste Lao du Nord de la France",
      "lat": 46.603354,
      "lng": 1.888334,
      "tradition": "Buddhist",
      "faith": "Buddhist",
      "type": "Center",
      "folder": "BuddhaNet (France)",
      "address": "214 boulevard de Styrasbourg 59100 Roubaix Nord",
      "phone": "03 20 46 38 65",
      "website": "http://mapof.it/214"
    },
    {
      "id": "4ad4e43d7df6",
      "name": "Association de Developpement des Valeurs Humaines",
      "lat": 16.370036,
      "lng": -2.290024,
      "tradition": "Zen",
      "faith": "Buddhist",
      "type": "Center",
      "folder": "BuddhaNet (Mali)",
      "address": "Rue 547 Porte 202 Quinzambougou Bamako Mali Banliex Est de Bamako Titibougou. Bamako Mali Bamako, B.P.E.2040, Republic of Mali",
      "phone": "277-19-66 221-31-91 264-15-24",
      "website": "http://mapof.it/Rue"
    },
    {
      "id": "48d3f1404097",
      "name": "Association des Bouddhistes de Linh Son",
      "lat": 50.640281,
      "lng": 4.666715,
      "tradition": "Buddhist",
      "faith": "Buddhist",
      "type": "Center",
      "folder": "BuddhaNet (Belgium)",
      "address": "88 Rue de la Victoire - 1060 Bruxelles",
      "phone": "02 538 59 07 or 02 772 71 63",
      "website": "http://mapof.it/88"
    },
    {
      "id": "465ea5308461",
      "name": "Association Dzogchen in Switzerland",
      "lat": 46.798562,
      "lng": 8.231974,
      "tradition": "Buddhist",
      "faith": "Buddhist",
      "type": "Center",
      "folder": "BuddhaNet (Switzerland)",
      "address": "Switzerland",
      "phone": null,
      "website": "http://mapof.it/Switzerland"
    },
    {
      "id": "571e11077dd5",
      "name": "Association L'\u00c9cole de la For\u00eat",
      "lat": 46.603354,
      "lng": 1.888334,
      "tradition": "Buddhist",
      "faith": "Buddhist",
      "type": "Center",
      "folder": "BuddhaNet (France)",
      "address": "278 rue Carnot, M\u00e2con Bourgogne, 71000 Teachers:",
      "phone": "03 85 39 46 97",
      "website": "http://mapof.it/278"
    },
    {
      "id": "53589adbab0f",
      "name": "Association Padma Ling",
      "lat": 46.603354,
      "lng": 1.888334,
      "tradition": "Tibetan",
      "faith": "Buddhist",
      "type": "Center",
      "folder": "BuddhaNet (France)",
      "address": "116-118 Bd M\u00c3\u00a9nilmontant, 75020 Paris",
      "phone": "01 43 80 05 60",
      "website": "http://mapof.it/116-118"
    },
    {
      "id": "e323a3b3c2d7",
      "name": "Association Yeshe Korlo Suisse",
      "lat": 46.798562,
      "lng": 8.231974,
      "tradition": "Buddhist",
      "faith": "Buddhist",
      "type": "Center",
      "folder": "BuddhaNet (Switzerland)",
      "address": "1814 La Tour-de-Peilz, Rue des Terreaux 14",
      "phone": null,
      "website": "http://mapof.it/1814"
    },
    {
      "id": "2cfc4f7e199a",
      "name": "Association Zen De Montaigu",
      "lat": 46.603354,
      "lng": 1.888334,
      "tradition": "Mahayana",
      "faith": "Buddhist",
      "type": "Center",
      "folder": "BuddhaNet (France)",
      "address": "La Musi\u00c3\u00a8re 85600 St Hilaire Le Loulayg",
      "phone": "01 48 92 06 71",
      "website": "http://mapof.it/La"
    },
    {
      "id": "91e8c0293fc7",
      "name": "Associazone per la meditazione di consapevolezza (a.me.co)",
      "lat": 42.638426,
      "lng": 12.674297,
      "tradition": "Theravada",
      "faith": "Buddhist",
      "type": "Center",
      "folder": "BuddhaNet (Italy)",
      "address": "Vicolo d'Orfeo 1 00193 Roma",
      "phone": "06.6865148",
      "website": "http://mapof.it/Vicolo"
    },
    {
      "id": "c1d950935302",
      "name": "Associazone Santacittarama",
      "lat": 42.638426,
      "lng": 12.674297,
      "tradition": "Theravada",
      "faith": "Buddhist",
      "type": "Center",
      "folder": "BuddhaNet (Italy)",
      "address": "02030 Frasso Sabino (Rieti)",
      "phone": null,
      "website": "http://mapof.it/02030"
    },
    {
      "id": "8df86d9c2002",
      "name": "Associa\u00e7\u00e3o Vipassana Portugal",
      "lat": 37.36937,
      "lng": -8.800556,
      "tradition": "Theravada",
      "faith": "Buddhist",
      "type": "Meditation Center",
      "folder": "Goenka Vipassana (dhamma.org)",
      "address": "Faro, Rogil",
      "phone": null,
      "website": null,
      "schools": [
        "vipassana"
      ]
    },
    {
      "id": "b7930430f078",
      "name": "Atammayatarama Buddhist Monastery",
      "lat": 47.767261,
      "lng": -122.106911,
      "tradition": "Theravada",
      "faith": "Buddhist",
      "type": "Monastery",
      "folder": "Insight, Theravada, Vipassanna",
      "address": "19301 176th Avenue Northeast, Woodinville, Washington, 98072",
      "phone": null,
      "website": "https://www.atamma.org/"
    },
    {
      "id": "358aef87bff8",
      "name": "Ati Ling",
      "lat": 38.516142,
      "lng": -123.157869,
      "tradition": "Tibetan",
      "faith": "Buddhist",
      "type": "Center",
      "folder": "Tibetan",
      "address": "California",
      "phone": null,
      "website": null
    },
    {
      "id": "ca49f1ce77c0",
      "name": "Atlanta Buddhist Association",
      "lat": 32.329381,
      "lng": -83.113737,
      "tradition": "Buddhist",
      "faith": "Buddhist",
      "type": "Center",
      "folder": "BuddhaNet (United States of America)",
      "address": "5383-D New Peachtree Road, Chamblee, GA 30341 GA",
      "phone": "(770) 414-0485 or (770) 972-6553",
      "website": "http://mapof.it/5383-D"
    },
    {
      "id": "9d518e07a3dd",
      "name": "Atlanta Dhamma House",
      "lat": 33.728821,
      "lng": -83.960966,
      "tradition": "Theravada",
      "faith": "Buddhist",
      "type": "Center",
      "folder": "Insight, Theravada, Vipassanna",
      "address": "North Hightower Trail, Georgia, 30012",
      "phone": null,
      "website": null
    },
    {
      "id": "17516f1a02b6",
      "name": "Atlanta Dhamma House",
      "lat": 33.754466,
      "lng": -84.389815,
      "tradition": "Theravada",
      "faith": "Buddhist",
      "type": "Meditation Center",
      "folder": "Goenka Vipassana (dhamma.org)",
      "address": "Georgia, Atlanta",
      "phone": null,
      "website": null,
      "schools": [
        "vipassana"
      ]
    },
    {
      "id": "55b6f07ff07a",
      "name": "Atlantic Canada Vipassana Meditation",
      "lat": 51.832637,
      "lng": -56.072374,
      "tradition": "Theravada",
      "faith": "Buddhist",
      "type": "Meditation Center",
      "folder": "Goenka Vipassana (dhamma.org)",
      "address": "Atlantic Canada",
      "phone": null,
      "website": null,
      "schools": [
        "vipassana"
      ]
    },
    {
      "id": "9d153d0e87b4",
      "name": "Atlantic Chan Buddhist Assocation",
      "lat": 45.19604,
      "lng": -63.165379,
      "tradition": "Zen",
      "faith": "Buddhist",
      "type": "Center",
      "folder": "BuddhaNet (Canada)",
      "address": "2145 Windsor Street, Halifax, NS B3K 5B5 Nova Scotia",
      "phone": "(902) 422-0042",
      "website": "http://mapof.it/2145"
    },
    {
      "id": "d949c9e03225",
      "name": "Aung Mangalar Buddhist Temple",
      "lat": 36.701463,
      "lng": -118.755997,
      "tradition": "Buddhist",
      "faith": "Buddhist",
      "type": "Temple",
      "folder": "BuddhaNet (United States of America)",
      "address": "369 Saint Francis Blvd Daly City CA 94015",
      "phone": "(650)994-2039 (650) 868-6960",
      "website": "http://mapof.it/369"
    },
    {
      "id": "d09f0c547a2e",
      "name": "Aung Mray Ratana Buddhist Monastery",
      "lat": 24.476929,
      "lng": 90.293441,
      "tradition": "Theravada",
      "faith": "Buddhist",
      "type": "Monastery",
      "folder": "BuddhaNet (Bangladesh)",
      "address": "Dolochary Sitapahar, P.O-:-Raikhali Bazar, P.S:-Chandraghuna, Dist:- Rangamati Hill Tracts, Chittagong, Bangladesh. Rangamati 3245",
      "phone": "0088-01818292491, 0088-01553245746",
      "website": "http://mapof.it/Dolochary"
    },
    {
      "id": "f4e7ed284cdb",
      "name": "Australian Buddhist Vihara",
      "lat": -32.162951,
      "lng": 147.032057,
      "tradition": "Buddhist",
      "faith": "Buddhist",
      "type": "Monastery",
      "folder": "BuddhaNet (Australia)",
      "address": "43 Cliff Drive Katoomba NSW 2780 NSW",
      "phone": "(02) 4782 2704 ( Vihara)",
      "website": "http://mapof.it/43"
    },
    {
      "id": "de259efcbe38",
      "name": "Avalokiteshvara - Buddhist Study Center",
      "lat": 27.756767,
      "lng": -81.463983,
      "tradition": "Buddhist",
      "faith": "Buddhist",
      "type": "Center",
      "folder": "BuddhaNet (United States of America)",
      "address": "321 Lamont Road Fort Pierce FL 34947-1541",
      "phone": "(09) 276 2211",
      "website": "http://mapof.it/321"
    },
    {
      "id": "ab488c0ca827",
      "name": "Avalokitesvara Buddhist Temple",
      "lat": 61.066692,
      "lng": -107.991707,
      "tradition": "Buddhist",
      "faith": "Buddhist",
      "type": "Temple",
      "folder": "BuddhaNet (Canada)",
      "address": "2220-20th Street West, Saskatoon, Saskatchewan S7M 1B1 Saskatchewan",
      "phone": null,
      "website": "http://mapof.it/2220-20th"
    },
    {
      "id": "2cce9bac3e68",
      "name": "Avtamsaka Monastery Meditation Centre",
      "lat": 55.001251,
      "lng": -125.002441,
      "tradition": "Zen",
      "faith": "Buddhist",
      "type": "Monastery",
      "folder": "BuddhaNet (Canada)",
      "address": "(Vietnamese Unified Buddhist Congregation of Canada) 12281 Bell Street, Mission, BC V4S 1C3 BC",
      "phone": "(604) 462-8281",
      "website": "http://mapof.it/(Vietnamese"
    },
    {
      "id": "0c71df972f8e",
      "name": "Awakening Valley Sangha",
      "lat": 40.239731,
      "lng": -111.642383,
      "tradition": "Zen",
      "faith": "Buddhist",
      "type": "Meditation Center",
      "folder": "Zen, Chan, Son, & Thien,",
      "address": "East 450 North, Provo, Utah, 84606",
      "phone": null,
      "website": null
    },
    {
      "id": "f637cbfb3233",
      "name": "Awam Tibetan Buddhist Institute",
      "lat": 34.395342,
      "lng": -111.763275,
      "tradition": "Tibetan",
      "faith": "Buddhist",
      "type": "Institute",
      "folder": "BuddhaNet (United States of America)",
      "address": "3400 E Speedway Blvd Tucson AZ 85716 Tucson AZ 85716",
      "phone": "520-622-8460",
      "website": "at"
    },
    {
      "id": "4dce87ea1bfc",
      "name": "Aylesbury Buddhist Meditation Group",
      "lat": 54.702354,
      "lng": -3.276575,
      "tradition": "Buddhist",
      "faith": "Buddhist",
      "type": "Meditation Center",
      "folder": "BuddhaNet (United Kingdom)",
      "address": "",
      "phone": "01296 681161",
      "website": null
    },
    {
      "id": "f7686ef88d2c",
      "name": "Ayya Khema Group - Winkelhaid",
      "lat": 51.163818,
      "lng": 10.447831,
      "tradition": "Theravada",
      "faith": "Buddhist",
      "type": "Center",
      "folder": "BuddhaNet (Germany)",
      "address": "Gabriele Sciortino & Joachim \u00c3\u0096sterreicher 90610 Winkelhaid, F\u00c3\u00b6hrenweg 6",
      "phone": null,
      "website": "http://mapof.it/Gabriele"
    },
    {
      "id": "f13491f70e7a",
      "name": "AZI Groupe of Savona",
      "lat": 42.638426,
      "lng": 12.674297,
      "tradition": "Buddhist",
      "faith": "Buddhist",
      "type": "Center",
      "folder": "BuddhaNet (Italy)",
      "address": "Savona, 17100 c/o Associazione Culturale Il Cerchio, Piazza Del Popolo 5/7",
      "phone": "+39 019-484956",
      "website": "http://mapof.it/Savona"
    },
    {
      "id": "855d5de5fc6b",
      "name": "AZI Zen Group",
      "lat": 52.215933,
      "lng": 19.134422,
      "tradition": "Zen",
      "faith": "Buddhist",
      "type": "Center",
      "folder": "BuddhaNet (Poland)",
      "address": "Varsovie, 01-517 Mickiewicza 13-15 M. 16A",
      "phone": null,
      "website": "http://mapof.it/Varsovie"
    },
    {
      "id": "621a5089e4f0",
      "name": "B.B.K. Prachar Sangha",
      "lat": 24.476929,
      "lng": 90.293441,
      "tradition": "Theravada",
      "faith": "Buddhist",
      "type": "Center",
      "folder": "BuddhaNet (Bangladesh)",
      "address": "Atisa Dipankar Sarak, Dhaka Bashaboo 1214",
      "phone": null,
      "website": "http://mapof.it/Atisa"
    },
    {
      "id": "289d54b15435",
      "name": "Ba La Mat Buddhist Center",
      "lat": 25.550988,
      "lng": -80.387508,
      "tradition": "Chinese",
      "faith": "Buddhist",
      "type": "Center",
      "folder": "Chinese Temple",
      "address": "12100 Southwest 232nd Street, Miami, Florida, 33032",
      "phone": null,
      "website": null
    },
    {
      "id": "ee645fb75935",
      "name": "Bahujan Sukay Foundation (Reg)",
      "lat": 19.567032,
      "lng": 76.416456,
      "tradition": "Buddhist",
      "faith": "Buddhist",
      "type": "Center",
      "folder": "BuddhaNet (India)",
      "address": "105/20-B1, NISARG CHS, SANGHARSH NGR,CHANDIVALI FARM RD,CHANDIVALI, ANDHERI (E) MUM-400 072 Mumbai Maharashtra 400072",
      "phone": "9594676716",
      "website": "http://mapof.it/105/20-B1"
    },
    {
      "id": "61f310d7a51c",
      "name": "Balangoda Ananda Maitreya International Buddhist Fund",
      "lat": 7.555494,
      "lng": 80.713785,
      "tradition": "Theravada",
      "faith": "Buddhist",
      "type": "Center",
      "folder": "BuddhaNet (Sri Lanka)",
      "address": "Sri Gunananda Mawatha, Miriswatta, Balangoda, Sri Lanka Sabaragamuwa Province RN 70100",
      "phone": "08-388080 or 08-387568",
      "website": "http://mapof.it/Sri"
    },
    {
      "id": "3d3c0869c60f",
      "name": "Bambushain Sangha",
      "lat": 51.163818,
      "lng": 10.447831,
      "tradition": "Buddhist",
      "faith": "Buddhist",
      "type": "Center",
      "folder": "BuddhaNet (Germany)",
      "address": "Theaterstr. 27/29, Aachen 52062",
      "phone": "(0049) 241-708093",
      "website": "http://mapof.it/Theaterstr"
    },
    {
      "id": "41c393f22276",
      "name": "Bangla-America Buddhist Fellowship (Sambodhi Vihara)",
      "lat": 36.701463,
      "lng": -118.755997,
      "tradition": "Theravada",
      "faith": "Buddhist",
      "type": "Monastery",
      "folder": "BuddhaNet (United States of America)",
      "address": "1346 Elm Avenue Long Beach CA CA 90813",
      "phone": "(562) 394-3739",
      "website": "http://mapof.it/1346"
    },
    {
      "id": "10c4d4deca4b",
      "name": "Bangladesh Bhikkhu Training & Meditation Center",
      "lat": 24.476929,
      "lng": 90.293441,
      "tradition": "Theravada",
      "faith": "Buddhist",
      "type": "Meditation Center",
      "folder": "BuddhaNet (Bangladesh)",
      "address": "VILL & P.O.: KADALPUR, P.S.: RAOZAN, DIST: CHITTAGONG, BANGLADESH Chittagong 4340",
      "phone": "+88 01815 672676",
      "website": "http://mapof.it/VILL"
    },
    {
      "id": "f4e5e539479b",
      "name": "Bangladesh Bouddha Bhikkhu Mahasabha",
      "lat": 24.476929,
      "lng": 90.293441,
      "tradition": "Theravada",
      "faith": "Buddhist",
      "type": "Center",
      "folder": "BuddhaNet (Bangladesh)",
      "address": "G.P.Box # 921 Pancharia Gandha Kuti Vihar, Patiya, Chittagong Chittagong 4000",
      "phone": "0088-01818-466343, 0088-01819-620522",
      "website": "http://mapof.it/G.P.Box"
    },
    {
      "id": "ba47d4be5779",
      "name": "Bangladesh Bouddha Juba Parishad",
      "lat": 24.476929,
      "lng": 90.293441,
      "tradition": "Buddhist",
      "faith": "Buddhist",
      "type": "Center",
      "folder": "BuddhaNet (Bangladesh)",
      "address": "(Young Buddhist Association of Bangladesh) Ismail Mansion (3rd Floor) 9-H Motijheel Comm. Area, Dhaka, Bangladesh",
      "phone": null,
      "website": "http://mapof.it/(Young"
    },
    {
      "id": "ca46d3b033d9",
      "name": "Bangladesh Bouddha Kristi Prachar Sangha-Youth",
      "lat": 24.476929,
      "lng": 90.293441,
      "tradition": "Theravada",
      "faith": "Buddhist",
      "type": "Center",
      "folder": "BuddhaNet (Bangladesh)",
      "address": "Nava Pandit Vihar, 15 Katalgoni Chittagong 4000, Bangladesh",
      "phone": "+8801817704791, +8801714407450",
      "website": "http://mapof.it/Nava"
    },
    {
      "id": "6791d8fc9c3e",
      "name": "Bangladesh Buddhist Academy.",
      "lat": 24.476929,
      "lng": 90.293441,
      "tradition": "Theravada",
      "faith": "Buddhist",
      "type": "Center",
      "folder": "BuddhaNet (Bangladesh)",
      "address": "PARICHOY, 5 SURSON ROAD, NORTH ASHKHAR DIGHI, Chittagong, Bangladesh Chittagong 4000",
      "phone": "+88 - 031 - 285 7755 / +88 - 01715 444488",
      "website": "http://mapof.it/PARICHOY"
    },
    {
      "id": "e4052958fabf",
      "name": "Bangladesh Buddhist Center of America, inc.",
      "lat": 39.78373,
      "lng": -100.445882,
      "tradition": "Theravada",
      "faith": "Buddhist",
      "type": "Center",
      "folder": "BuddhaNet (United States of America)",
      "address": "90-19, 88th Ave, Suite#c42 Woodhaven, New York 11418",
      "phone": null,
      "website": "http://mapof.it/90-19"
    },
    {
      "id": "b879255e2fa4",
      "name": "Bangladesh Buddhist Temple",
      "lat": 25.644085,
      "lng": 85.906508,
      "tradition": "Theravada",
      "faith": "Buddhist",
      "type": "Temple",
      "folder": "BuddhaNet (India)",
      "address": "Bodhgaya, Gaya, Bihar 824231 India Bodhgaya",
      "phone": "0091-631-2200226",
      "website": "http://mapof.it/Bodhgaya"
    },
    {
      "id": "cb3ccad60b52",
      "name": "Bangladesh Youth Buddhist Association",
      "lat": 24.476929,
      "lng": 90.293441,
      "tradition": "Theravada",
      "faith": "Buddhist",
      "type": "Center",
      "folder": "BuddhaNet (Bangladesh)",
      "address": "Chittagong Buddhist Monastery Buddhist Temple Road, Chittagong, Bangladesh",
      "phone": "(88 31) 504 709",
      "website": "http://mapof.it/Chittagong"
    },
    {
      "id": "0fb459c1f0fe",
      "name": "Bao Chon Zen Temple",
      "lat": 42.849357,
      "lng": -71.890235,
      "tradition": "Vietnamese",
      "faith": "Buddhist",
      "type": "Temple",
      "folder": "Vietnamese Temples",
      "address": "Wilton Road, Peterborough, New Hampshire, 03458",
      "phone": null,
      "website": null
    },
    {
      "id": "8198f0bdb69d",
      "name": "Bao Quang Temple",
      "lat": 51.163818,
      "lng": 10.447831,
      "tradition": "Buddhist",
      "faith": "Buddhist",
      "type": "Temple",
      "folder": "BuddhaNet (Germany)",
      "address": "Schiffbeker Weg 177 2000 Hamburg-74 Hamburg",
      "phone": "040-732 5543",
      "website": "http://mapof.it/Schiffbeker"
    },
    {
      "id": "29e7367db3b8",
      "name": "Baratiya Bauddha Sabha (Ambedkar Siksha Samiti)",
      "lat": 27.130334,
      "lng": 80.859666,
      "tradition": "Theravada",
      "faith": "Buddhist",
      "type": "Center",
      "folder": "BuddhaNet (India)",
      "address": "Isipatana Marg, Sarnath, Varanasi Uttar Pradesh",
      "phone": null,
      "website": "http://mapof.it/Isipatana"
    },
    {
      "id": "0b286c7e14a5",
      "name": "Barbara Vester Sitzgruppe - Erlangen",
      "lat": 51.163818,
      "lng": 10.447831,
      "tradition": "Buddhist",
      "faith": "Buddhist",
      "type": "Center",
      "folder": "BuddhaNet (Germany)",
      "address": "91058 Erlangen, Gleiwitzer Str. 34",
      "phone": null,
      "website": "http://mapof.it/91058"
    },
    {
      "id": "bd21e61d9eca",
      "name": "Barcelona Zen Center",
      "lat": 39.326068,
      "lng": -4.837979,
      "tradition": "Zen",
      "faith": "Buddhist",
      "type": "Center",
      "folder": "BuddhaNet (Spain)",
      "address": "Passeig del Born No. 17 4o 2a Barcelona Spain",
      "phone": null,
      "website": "http://mapof.it/Passeig"
    },
    {
      "id": "a6d41fefc3f8",
      "name": "Barom Kagyu Choe Khor Ling",
      "lat": 37.341924,
      "lng": -121.761926,
      "tradition": "Tibetan",
      "faith": "Buddhist",
      "type": "Center",
      "folder": "Tibetan",
      "address": "4017 Higuera Highland Lane, San Jose, California, 95148",
      "phone": null,
      "website": null
    },
    {
      "id": "9f1fac82703c",
      "name": "Barrington Zen Center",
      "lat": 43.484913,
      "lng": -71.655399,
      "tradition": "Zen",
      "faith": "Buddhist",
      "type": "Center",
      "folder": "BuddhaNet (United States of America)",
      "address": "Lois Lane, Barrington, NH 03825 NH",
      "phone": "(603) 664-7654",
      "website": "http://mapof.it/Lois"
    },
    {
      "id": "c104e146605c",
      "name": "Bat Nha Temple-Ch\u00f9a B\u00e1t Nh\u00e3",
      "lat": 34.56698,
      "lng": -92.499768,
      "tradition": "Vietnamese",
      "faith": "Buddhist",
      "type": "Temple",
      "folder": "Vietnamese Temples",
      "address": "1051 Tom Road, Bauxite, Arkansas, 72011",
      "phone": null,
      "website": null
    },
    {
      "id": "0c1bc9fa534d",
      "name": "Batu Pahat Insight Meditation Centre",
      "lat": 4.569375,
      "lng": 102.265682,
      "tradition": "Theravada",
      "faith": "Buddhist",
      "type": "Meditation Center",
      "folder": "BuddhaNet (Malaysia)",
      "address": "15A Jalan Siantan Taman Perdana 83000 Batu Pahat, Johor Johor",
      "phone": "(7) 4326054",
      "website": "http://mapof.it/15A"
    },
    {
      "id": "a640f3f2709e",
      "name": "Bauddha Shikshan Prashiksahan Vigyan Club",
      "lat": 22.351115,
      "lng": 78.667743,
      "tradition": "Theravada",
      "faith": "Buddhist",
      "type": "Center",
      "folder": "BuddhaNet (India)",
      "address": "MOH.CANAL ROAD IN FRONT OF P.G. COLLEGE GANJDUNDWARA 207242",
      "phone": "Mobi.9719340806",
      "website": "http://mapof.it/MOH.CANAL"
    },
    {
      "id": "b58aea85b1b3",
      "name": "Bauddhistava Shiksha Sansthan",
      "lat": 27.130334,
      "lng": 80.859666,
      "tradition": "Theravada",
      "faith": "Buddhist",
      "type": "Center",
      "folder": "BuddhaNet (India)",
      "address": "Bauddhistava Shiksha Sansthan,Halalpur Chilkana Road, Saharanpur(UP)247001,India halalpur Uttar Pradesh 247001",
      "phone": "09428332205",
      "website": "http://mapof.it/Bauddhistava"
    },
    {
      "id": "2dd0b648fecb",
      "name": "Beit Hashita (CMI)",
      "lat": 30.812425,
      "lng": 34.859476,
      "tradition": "Mahayana",
      "faith": "Buddhist",
      "type": "Center",
      "folder": "BuddhaNet (Israel)",
      "address": "",
      "phone": "06-6536837",
      "website": null
    },
    {
      "id": "5b0d1065a778",
      "name": "Benchen Karma Choeling",
      "lat": 1.357107,
      "lng": 103.819499,
      "tradition": "Tibetan",
      "faith": "Buddhist",
      "type": "Center",
      "folder": "BuddhaNet (Singapore)",
      "address": "492A Geylang Road 389450",
      "phone": "6567477152",
      "website": "http://mapof.it/492A"
    },
    {
      "id": "9fc3e88ef032",
      "name": "Benchen Monastery",
      "lat": 27.611635,
      "lng": 85.267011,
      "tradition": "Buddhist",
      "faith": "Buddhist",
      "type": "Monastery",
      "folder": "Wolf K Asia Retreats (Nepal)",
      "address": "Pharping.",
      "phone": null,
      "website": "https://benchen.org/en/"
    },
    {
      "id": "5c202299e091",
      "name": "Benoni Cultural Centre",
      "lat": -28.816624,
      "lng": 24.991639,
      "tradition": "Buddhist",
      "faith": "Buddhist",
      "type": "Center",
      "folder": "BuddhaNet (South Africa)",
      "address": "134 Busschau Rd., Vlei Rd. Benoni, J.H.B. 5003 R.S.A. P.O. Box 7132 PETIT 1512 R.S.A.",
      "phone": null,
      "website": "http://mapof.it/134"
    },
    {
      "id": "4301a9246300",
      "name": "Benuban Bauddha Sangha",
      "lat": 22.351115,
      "lng": 78.667743,
      "tradition": "Theravada",
      "faith": "Buddhist",
      "type": "Center",
      "folder": "BuddhaNet (India)",
      "address": "Benuban vihara,13 Maitri sarani,P.O.Rabindranagar,DumDum Cantonment,Kolkata-700065 DumDum 700065",
      "phone": "+91-033-2566-3441",
      "website": "http://mapof.it/Benuban"
    },
    {
      "id": "577d9aea2cb0",
      "name": "Berkeley Buddhist Temple",
      "lat": 37.866088,
      "lng": -122.266483,
      "tradition": "Pure Land",
      "faith": "Buddhist",
      "type": "Temple",
      "folder": "Pure Land, Soka Gakkai, Jodo Shin",
      "address": "2121 Channing Way, Berkeley, California, 94701",
      "phone": null,
      "website": "http://www.berkeleysangha.org/"
    },
    {
      "id": "40abc2a34433",
      "name": "Betagi Sharbojonin Dharmananda Bihar",
      "lat": 24.476929,
      "lng": 90.293441,
      "tradition": "Theravada",
      "faith": "Buddhist",
      "type": "Center",
      "folder": "BuddhaNet (Bangladesh)",
      "address": "VILLAGE & POST OFFICE:BETAGI, POLICE STATION: RANGUNIA Chittagong 4348",
      "phone": null,
      "website": "http://mapof.it/VILLAGE"
    },
    {
      "id": "856e67f033f2",
      "name": "Betbunia Center Buddha Vihar & U Kainda Children Home",
      "lat": 24.476929,
      "lng": 90.293441,
      "tradition": "Buddhist",
      "faith": "Buddhist",
      "type": "Center",
      "folder": "BuddhaNet (Bangladesh)",
      "address": "Betbunia Headman para,Chairi Bazar Kawkhali, Rangamati Hill Tracts 4511",
      "phone": null,
      "website": "http://mapof.it/Betbunia"
    },
    {
      "id": "cc41abefbf4b",
      "name": "Beupeun International Zen center",
      "lat": 36.638392,
      "lng": 127.696119,
      "tradition": "Zen",
      "faith": "Buddhist",
      "type": "Center",
      "folder": "BuddhaNet (Korea)",
      "address": "17-301, Bulguangdong Eunpyungku Seoul 122-847 Korea",
      "phone": "82-2-355-7430",
      "website": "http://mapof.it/17-301"
    },
    {
      "id": "58ac95e7932c",
      "name": "Bhadantacharya Buddhadatta Pali Promotion Foundation",
      "lat": 23.814342,
      "lng": 77.534072,
      "tradition": "Theravada",
      "faith": "Buddhist",
      "type": "Center",
      "folder": "BuddhaNet (India)",
      "address": "At. - Umeri, Post - Agasi, Teh. - Katangi, Distt. - Balaghat (M.P.)481 445 India Umeri Madhya Pradesh Agasi",
      "phone": "098914 00819",
      "website": "http://mapof.it/At"
    },
    {
      "id": "c431ac079c33",
      "name": "Bhartiya Dalit Painthar",
      "lat": 23.814342,
      "lng": 77.534072,
      "tradition": "Buddhist",
      "faith": "Buddhist",
      "type": "Center",
      "folder": "BuddhaNet (India)",
      "address": "IHM COLONY,KOLAR ROAD NEAR BUDDHABHOOMI, BHOPAL Madhya Pradesh 462001",
      "phone": "8982877306",
      "website": "http://mapof.it/IHM"
    },
    {
      "id": "c296d6c18d36",
      "name": "Bhodhiyana meditation center",
      "lat": 36.154212,
      "lng": -115.218623,
      "tradition": "Southeast Asian",
      "faith": "Buddhist",
      "type": "Meditation Center",
      "folder": "Thai, Burmese, Lao, Cambodian, and Sri Lankan Temple",
      "address": "1566 Westwind Road, Las Vegas, Nevada, 89146",
      "phone": "+1 702 438 8000",
      "website": "https://www.come2mountainview.com/"
    },
    {
      "id": "89b85d560952",
      "name": "Bidarshan Dhyan Ashram",
      "lat": 22.351115,
      "lng": 78.667743,
      "tradition": "Theravada",
      "faith": "Buddhist",
      "type": "Ashram",
      "folder": "BuddhaNet (India)",
      "address": "Hydarpara, Dist. Darjeeling Estb. 1981 Siliguri Bangla",
      "phone": null,
      "website": "http://mapof.it/Hydarpara"
    },
    {
      "id": "de98f2ac33c2",
      "name": "Bihar School of Yoga",
      "lat": 25.220286,
      "lng": 86.516148,
      "tradition": "Buddhist",
      "faith": "Buddhist",
      "type": "Center",
      "folder": "Wolf K Asia Retreats (India)",
      "address": "Munger, Bihar.",
      "phone": null,
      "website": "http://www.biharyoga.net/bihar-school-of-yoga/about-bsy/"
    },
    {
      "id": "0a1b43b12578",
      "name": "Bilchari Triratnagkur Buddhist Monastary",
      "lat": 24.476929,
      "lng": 90.293441,
      "tradition": "Theravada",
      "faith": "Buddhist",
      "type": "Center",
      "folder": "BuddhaNet (Bangladesh)",
      "address": "Vill:-Bilchari,P.O:-Lama,P.S:-Cakaria. Coxs Bazar 4640",
      "phone": "008801553790712",
      "website": "http://mapof.it/Vill:-Bilchari,P.O:-Lama,P.S:-Cakaria"
    },
    {
      "id": "9807518a3249",
      "name": "Billings Dharma Center",
      "lat": 45.776212,
      "lng": -108.535267,
      "tradition": "Tibetan",
      "faith": "Buddhist",
      "type": "Center",
      "folder": "Tibetan",
      "address": "785 Custer Avenue, Billings, Montana, 59101",
      "phone": null,
      "website": null
    },
    {
      "id": "6ac68ba63967",
      "name": "Billings Dharma Center",
      "lat": 47.375267,
      "lng": -109.638757,
      "tradition": "Mahayana",
      "faith": "Buddhist",
      "type": "Center",
      "folder": "BuddhaNet (United States of America)",
      "address": "244 Lewis Avenue Billings MT 59101",
      "phone": "08.8417117",
      "website": "http://mapof.it/244"
    },
    {
      "id": "9ebae7c8b2b8",
      "name": "Birken Forest Monastery",
      "lat": 55.001251,
      "lng": -125.002441,
      "tradition": "Zen",
      "faith": "Buddhist",
      "type": "Monastery",
      "folder": "BuddhaNet (Canada)",
      "address": "P.O. Box 1A6 Knutsford, BC V0E 2A0 BC",
      "phone": "(250) 318-2980",
      "website": "http://mapof.it/P.O"
    },
    {
      "id": "9c3b0d2c8be8",
      "name": "Birmingham Shambhala Meditation Center",
      "lat": 33.516818,
      "lng": -86.775996,
      "tradition": "Tibetan",
      "faith": "Buddhist",
      "type": "Meditation Center",
      "folder": "Tibetan",
      "address": "714 37th Street South, Birmingham, Alabama, 35222",
      "phone": null,
      "website": "https://birmingham.shambhala.org/"
    },
    {
      "id": "9b482037f806",
      "name": "Black Brook Buddhist Church",
      "lat": 39.78373,
      "lng": -100.445882,
      "tradition": "Buddhist",
      "faith": "Buddhist",
      "type": "Center",
      "folder": "BuddhaNet (United States of America)",
      "address": "487 Depot Street South Easton 02375",
      "phone": null,
      "website": "http://mapof.it/487"
    },
    {
      "id": "f87ed6691035",
      "name": "Black Mountain Zen",
      "lat": 34.395342,
      "lng": -111.763275,
      "tradition": "Zen",
      "faith": "Buddhist",
      "type": "Center",
      "folder": "BuddhaNet (United States of America)",
      "address": "8787 E. Pinnacle Peak Road Suite 206 Scottsdale AZ 85262",
      "phone": "480-586 5149 or 480-433-3198",
      "website": "http://mapof.it/8787"
    },
    {
      "id": "6ec19fa1b4fe",
      "name": "Blooming Lilac Sangha",
      "lat": 40.712728,
      "lng": -74.006015,
      "tradition": "Buddhist",
      "faith": "Buddhist",
      "type": "Center",
      "folder": "BuddhaNet (United States of America)",
      "address": "Rochester, NY NY",
      "phone": "(585) 533-1461",
      "website": "http://mapof.it/Rochester"
    },
    {
      "id": "882810ceed75",
      "name": "Blooming Lotus Yoga Center",
      "lat": 9.73495,
      "lng": 100.030571,
      "tradition": "Buddhist",
      "faith": "Buddhist",
      "type": "Center",
      "folder": "Wolf K Asia Retreats (Thailand)",
      "address": "Koh Phangan.",
      "phone": null,
      "website": "http://www.thailandyoga.net/yoga-retreats-thailand/thailand-yoga-retreat"
    },
    {
      "id": "aae022fcaabb",
      "name": "Blooming of the Lotus Urban Hermitage",
      "lat": -30.534367,
      "lng": 135.630121,
      "tradition": "Mahayana",
      "faith": "Buddhist",
      "type": "Center",
      "folder": "BuddhaNet (Australia)",
      "address": "9/2 Harkin Court Mitchell Park SA 5043",
      "phone": "0437169657",
      "website": "http://mapof.it/9/2"
    },
    {
      "id": "97285be03cc0",
      "name": "Blue Cliff Monastery",
      "lat": 41.636982,
      "lng": -74.395056,
      "tradition": "Zen",
      "faith": "Buddhist",
      "type": "Monastery",
      "folder": "Zen, Chan, Son, & Thien,",
      "address": "3 Mindfulness Road, Pine Bush, New York, 12566",
      "phone": "+18452131785",
      "website": "https://www.bluecliffmonastery.org/"
    },
    {
      "id": "074a2158d86c",
      "name": "Blue Heron Dharma Group",
      "lat": 50.000678,
      "lng": -86.000977,
      "tradition": "Mahayana",
      "faith": "Buddhist",
      "type": "Center",
      "folder": "BuddhaNet (Canada)",
      "address": "7 Butty Place, Hamilton, ON L9A 1A6 Ontario",
      "phone": "(905) 575-4818",
      "website": "http://mapof.it/"
    },
    {
      "id": "43cebda28754",
      "name": "Blue Lotus Buddhist Temple and Meditation Center",
      "lat": 42.31311,
      "lng": -88.447104,
      "tradition": "Theravada",
      "faith": "Buddhist",
      "type": "Temple",
      "folder": "Insight, Theravada, Vipassanna",
      "address": "221 Dean Street, Woodstock, Illinois, 60098",
      "phone": "+1-815-444-8915",
      "website": "https://www.bluelotustemple.org/"
    },
    {
      "id": "5d5307a27831",
      "name": "Blue Lotus Meditation Center and Louisiana Buddhist Vihara",
      "lat": 30.488805,
      "lng": -91.10691,
      "tradition": "Theravada",
      "faith": "Buddhist",
      "type": "Monastery",
      "folder": "Insight, Theravada, Vipassanna",
      "address": "7928 Prescott Road, Victoria Farm, Louisiana, 70812",
      "phone": null,
      "website": null
    },
    {
      "id": "2649cfcfb285",
      "name": "Blue Mountain Dharma",
      "lat": 38.025777,
      "lng": -78.467094,
      "tradition": "Tibetan",
      "faith": "Buddhist",
      "type": "Center",
      "folder": "Tibetan",
      "address": "1304 East Market Street, Charlottesville, Virginia, 22902",
      "phone": null,
      "website": null
    },
    {
      "id": "869fde0b037f",
      "name": "Blue Mountain Zendo",
      "lat": 40.670829,
      "lng": -75.384668,
      "tradition": "Zen",
      "faith": "Buddhist",
      "type": "Center",
      "folder": "Zen, Chan, Son, & Thien,",
      "address": "3897 Adler Place, Bethlehem, Pennsylvania, 18017",
      "phone": null,
      "website": null
    },
    {
      "id": "569fe51b119d",
      "name": "Blue River Bhavana",
      "lat": 38.760481,
      "lng": -92.561787,
      "tradition": "Theravada",
      "faith": "Buddhist",
      "type": "Center",
      "folder": "BuddhaNet (United States of America)",
      "address": "Pilgrim Chapel 3801 Gilham Road. Kansas City, Mo. MO 64111",
      "phone": null,
      "website": "http://mapof.it/Pilgrim"
    },
    {
      "id": "32fd2ce02f19",
      "name": "Bluebell Sangha",
      "lat": 54.702354,
      "lng": -3.276575,
      "tradition": "Buddhist",
      "faith": "Buddhist",
      "type": "Center",
      "folder": "BuddhaNet (United Kingdom)",
      "address": "Berwickshire Cockburnspath Scotland",
      "phone": "01368 830409",
      "website": "http://mapof.it/Berwickshire"
    },
    {
      "id": "88a70923445c",
      "name": "Bo De Buddhist Meditation Center",
      "lat": 42.378877,
      "lng": -72.032366,
      "tradition": "Buddhist",
      "faith": "Buddhist",
      "type": "Meditation Center",
      "folder": "BuddhaNet (United States of America)",
      "address": "773 Granite Street Braintree MA 02184",
      "phone": "781-848-3704",
      "website": "http://mapof.it/773"
    },
    {
      "id": "6c94a6c50a7f",
      "name": "Bo De Tam Monastery",
      "lat": 26.650108,
      "lng": -81.746197,
      "tradition": "Vietnamese",
      "faith": "Buddhist",
      "type": "Monastery",
      "folder": "Vietnamese Temples",
      "address": "6390 Eastwood Acres Road, Buckingham, Florida, 33905",
      "phone": null,
      "website": null
    },
    {
      "id": "2334098d1191",
      "name": "Bo Hyun Sa Temple",
      "lat": 26.029942,
      "lng": -80.390906,
      "tradition": "Zen",
      "faith": "Buddhist",
      "type": "Temple",
      "folder": "Zen, Chan, Son, & Thien,",
      "address": "7198 Southwest 182nd Way, Southwest Ranches, Florida, 33331",
      "phone": null,
      "website": null
    },
    {
      "id": "31658eddcac9",
      "name": "Bo Kwang Zen Center",
      "lat": 40.712728,
      "lng": -74.006015,
      "tradition": "Zen",
      "faith": "Buddhist",
      "type": "Center",
      "folder": "BuddhaNet (United States of America)",
      "address": "36-25 Union Street #1C, Flushing, NY 11354 NY",
      "phone": "(718) 353-2474",
      "website": "http://mapof.it/36-25"
    },
    {
      "id": "bd154f7e2255",
      "name": "Bo Kwang Zen Center",
      "lat": 38.760481,
      "lng": -92.561787,
      "tradition": "Zen",
      "faith": "Buddhist",
      "type": "Center",
      "folder": "BuddhaNet (United States of America)",
      "address": "4011 Juniata Saint Louis MO 63116",
      "phone": "3144200961",
      "website": "http://mapof.it/4011"
    },
    {
      "id": "c44139369fe6",
      "name": "Bo Tree News",
      "lat": 25.644085,
      "lng": 85.906508,
      "tradition": "Buddhist",
      "faith": "Buddhist",
      "type": "Center",
      "folder": "BuddhaNet (India)",
      "address": "Pachhatti, Bodh Gaya Bodh Gaya Bihar 824231",
      "phone": "+91-7546461795",
      "website": "http://mapof.it/Pachhatti"
    },
    {
      "id": "a8f7979d749d",
      "name": "Bodhi Bauddha Madyastana Dayaka Sabawa",
      "lat": 7.555494,
      "lng": 80.713785,
      "tradition": "Theravada",
      "faith": "Buddhist",
      "type": "Center",
      "folder": "BuddhaNet (Sri Lanka)",
      "address": "44,HIGHLEVEL ROAD KIRULOPANA COLOMBO 6. KIRULOPANA Western 10400",
      "phone": "94 714088660",
      "website": "http://mapof.it/44,HIGHLEVEL"
    },
    {
      "id": "76aef51184a8",
      "name": "Bodhi Baum Buddhistisches Zentrum",
      "lat": 51.163818,
      "lng": 10.447831,
      "tradition": "Zen",
      "faith": "Buddhist",
      "type": "Center",
      "folder": "BuddhaNet (Germany)",
      "address": "Grolmanstrasse 18 Berlin, Charlottenburg 10623 Berlin",
      "phone": null,
      "website": "http://mapof.it/Grolmanstrasse"
    },
    {
      "id": "7fac988ace79",
      "name": "Bodhi Charitable Trust",
      "lat": 10.352874,
      "lng": 76.51204,
      "tradition": "Theravada",
      "faith": "Buddhist",
      "type": "Center",
      "folder": "BuddhaNet (India)",
      "address": "Bodhi Nagar, vandithavalam, palakkad Dt, Kerala Palakkad 678534",
      "phone": null,
      "website": "http://mapof.it/Bodhi"
    },
    {
      "id": "fd2cde62009b",
      "name": "Bodhi Dhamma Vihara of Sisu Karuna Sangha (Chakma Temple)",
      "lat": 27.130334,
      "lng": 80.859666,
      "tradition": "Theravada",
      "faith": "Buddhist",
      "type": "Monastery",
      "folder": "BuddhaNet (India)",
      "address": "Sarnath, Varanasi Uttar Pradesh",
      "phone": "0091-9450370618",
      "website": "http://mapof.it/Sarnath"
    },
    {
      "id": "ab93a200668d",
      "name": "Bodhi Heart",
      "lat": 5.406501,
      "lng": 100.255908,
      "tradition": "Buddhist",
      "faith": "Buddhist",
      "type": "Center",
      "folder": "Wolf K Asia Retreats (Malaysia)",
      "address": "Penang.",
      "phone": null,
      "website": "http://www.bodhihearts.net/"
    },
    {
      "id": "c7f55db496d3",
      "name": "Bodhi Liberec",
      "lat": 49.743905,
      "lng": 15.338106,
      "tradition": "Theravada",
      "faith": "Buddhist",
      "type": "Center",
      "folder": "BuddhaNet (Czech Republic)",
      "address": "Borov\u00fd vrch 793 Liberec 14, 460 14 Czech republic Dr. Karel Hajek, Dr. Veronika Nevolova",
      "phone": "+420 485 120 564",
      "website": "http://mapof.it/Borov&yacute;"
    },
    {
      "id": "600de1ea8128",
      "name": "Bodhi Manda Zen Center",
      "lat": 35.772808,
      "lng": -106.689606,
      "tradition": "Zen",
      "faith": "Buddhist",
      "type": "Center",
      "folder": "Zen, Chan, Son, & Thien,",
      "address": "Jemez Springs, New Mexico, 87924",
      "phone": "+1-575-829-3854",
      "website": "https://bmzc.org/"
    },
    {
      "id": "7f834fdbb1a2",
      "name": "Bodhi Meditation Center of Missouri",
      "lat": 38.760481,
      "lng": -92.561787,
      "tradition": "Theravada",
      "faith": "Buddhist",
      "type": "Meditation Center",
      "folder": "BuddhaNet (United States of America)",
      "address": "Missouri Hazelwood MO 63042",
      "phone": "727-656-2243/",
      "website": "http://mapof.it/Missouri"
    },
    {
      "id": "c09f2e196169",
      "name": "Bodhi Meditation Centre and Library",
      "lat": 22.351115,
      "lng": 78.667743,
      "tradition": "Theravada",
      "faith": "Buddhist",
      "type": "Meditation Center",
      "folder": "BuddhaNet (India)",
      "address": "12-27-124, Seelamvari Street, Kothapet, GUNTUR, A.P. 522001 Andhra Pradesh 522001",
      "phone": "8790534711",
      "website": "http://mapof.it/12-27-124"
    },
    {
      "id": "313f38aa5ab0",
      "name": "Bodhi Path Buddhist Center",
      "lat": 34.438675,
      "lng": -119.747874,
      "tradition": "Tibetan",
      "faith": "Buddhist",
      "type": "Center",
      "folder": "Tibetan",
      "address": "3815 State Street, Santa Barbara, California, 91305",
      "phone": null,
      "website": null
    },
    {
      "id": "12ff4d1fdaa3",
      "name": "Bodhi Path Natural Bridge Center",
      "lat": 37.69085,
      "lng": -79.513019,
      "tradition": "Tibetan",
      "faith": "Buddhist",
      "type": "Center",
      "folder": "Tibetan",
      "address": "12 Bodhi Path, Virginia, 24578",
      "phone": null,
      "website": null
    },
    {
      "id": "b2531629c4ee",
      "name": "Bodhi Sabha",
      "lat": 22.351115,
      "lng": 78.667743,
      "tradition": "Theravada",
      "faith": "Buddhist",
      "type": "Center",
      "folder": "BuddhaNet (India)",
      "address": "Athpur Nutan Pally (Barua Para), P.O : Shyamnagar, Dist : 24 Pgs (N), Pin : 743127. Barrackpore sub division Bangla 743127",
      "phone": null,
      "website": "http://mapof.it/Athpur"
    },
    {
      "id": "9ef31270a8c8",
      "name": "Bodhi Zendo",
      "lat": 22.351115,
      "lng": 78.667743,
      "tradition": "Zen",
      "faith": "Buddhist",
      "type": "Center",
      "folder": "BuddhaNet (India)",
      "address": "Perumalmalai Kodaikanal 624104 India",
      "phone": "4542 30345",
      "website": "http://mapof.it/Perumalmalai"
    },
    {
      "id": "220a93eec65b",
      "name": "Bodhicharya International (Tib\u00c3\u00a9tain)",
      "lat": 50.640281,
      "lng": 4.666715,
      "tradition": "Tibetan",
      "faith": "Buddhist",
      "type": "Center",
      "folder": "BuddhaNet (Belgium)",
      "address": "Co-ordination office Rue D\\'Edimbourg 23 1050 Brussels",
      "phone": null,
      "website": "http://mapof.it/Co-ordination"
    },
    {
      "id": "539911accb7f",
      "name": "Bodhicitta Foundation",
      "lat": 38.895098,
      "lng": -77.036385,
      "tradition": "Buddhist",
      "faith": "Buddhist",
      "type": "Center",
      "folder": "BuddhaNet (United States of America)",
      "address": "1727 R St, NW Apt 501, Washington, DC 20009 DC",
      "phone": "(202) 518-1221",
      "website": "http://mapof.it/1727"
    },
    {
      "id": "b12b459eb556",
      "name": "Bodhiheart Sangha Buddhist Meditation Center in Seattle",
      "lat": 47.612074,
      "lng": -122.32194,
      "tradition": "Buddhist",
      "faith": "Buddhist",
      "type": "Meditation Center",
      "folder": "Other Buddhist Centers",
      "address": "1111 Harvard Avenue, Seattle, Washington, 98122",
      "phone": null,
      "website": null
    },
    {
      "id": "66ee88f57418",
      "name": "Bodhiraja Buddhist Society",
      "lat": 1.357107,
      "lng": 103.819499,
      "tradition": "Mahayana",
      "faith": "Buddhist",
      "type": "Center",
      "folder": "BuddhaNet (Singapore)",
      "address": "30-A Haig Road, Singapore, 438737",
      "phone": null,
      "website": "http://mapof.it/30-A"
    },
    {
      "id": "bbfa5c3f31cf",
      "name": "Bodhisatva Vipassana and Buddhism Charitable Trust",
      "lat": 19.567032,
      "lng": 76.416456,
      "tradition": "Theravada",
      "faith": "Buddhist",
      "type": "Center",
      "folder": "BuddhaNet (India)",
      "address": "Plot no.6, Vaishali Nagar, Jaswant Pura,Near sakhare mangal karyalaya Aurangabad Maharashtra 431001",
      "phone": "0278 2202051",
      "website": "http://mapof.it/Plot"
    },
    {
      "id": "13b7a30d8187",
      "name": "Bohyunsah: Samantabhadra Zen Center & The Temple of Universal Virtue",
      "lat": 36.701463,
      "lng": -118.755997,
      "tradition": "Zen",
      "faith": "Buddhist",
      "type": "Temple",
      "folder": "BuddhaNet (United States of America)",
      "address": "1932 Highland Blvd Hayward CA 94542",
      "phone": null,
      "website": "http://mapof.it/1932"
    },
    {
      "id": "b01e4c0a65fb",
      "name": "Boise Institute for Buddhist Studies",
      "lat": 43.626291,
      "lng": -116.206086,
      "tradition": "Theravada",
      "faith": "Buddhist",
      "type": "Institute",
      "folder": "Insight, Theravada, Vipassanna",
      "address": "901 North 15th Street, Boise, Idaho, 83702",
      "phone": "+1 208-343-7511",
      "website": "https://cathedraloftherockies.org/"
    },
    {
      "id": "0fa46379ee9e",
      "name": "Bong Boolsa, Korean Buddhist Temple",
      "lat": 40.079661,
      "lng": -89.433729,
      "tradition": "Buddhist",
      "faith": "Buddhist",
      "type": "Temple",
      "folder": "BuddhaNet (United States of America)",
      "address": "5114 North Elston Avenue, Chicago, IL 60630 IL",
      "phone": "(773) 286-0307",
      "website": "http://mapof.it/5114"
    },
    {
      "id": "d6e33ebc52e3",
      "name": "Bonn Buddhist Temple",
      "lat": 51.163818,
      "lng": 10.447831,
      "tradition": "Buddhist",
      "faith": "Buddhist",
      "type": "Temple",
      "folder": "BuddhaNet (Germany)",
      "address": "53173 Bonn, Friesdorferstr. 75 Bonn",
      "phone": "0049228318844",
      "website": "http://mapof.it/53173"
    },
    {
      "id": "979a17bc7eb4",
      "name": "Boonkanjanaram Meditation Center",
      "lat": 14.897192,
      "lng": 100.83273,
      "tradition": "Buddhist",
      "faith": "Buddhist",
      "type": "Meditation Center",
      "folder": "BuddhaNet (Thailand)",
      "address": "Pattaya, Chonburi 20260 Chon Buri",
      "phone": "0-3823-1865",
      "website": "http://mapof.it/Pattaya"
    },
    {
      "id": "9a24c2d26d9e",
      "name": "Border Zen Center",
      "lat": 31.26389,
      "lng": -98.545612,
      "tradition": "Zen",
      "faith": "Buddhist",
      "type": "Center",
      "folder": "BuddhaNet (United States of America)",
      "address": "4425 Byron Street (Unitarian Universalist Community) El Paso TX 79930",
      "phone": "(915) 562-4001",
      "website": "http://mapof.it/4425"
    },
    {
      "id": "c4f5708ab88e",
      "name": "Bordumsa Buddha ViharORDUMSA",
      "lat": 22.351115,
      "lng": 78.667743,
      "tradition": "Theravada",
      "faith": "Buddhist",
      "type": "Center",
      "folder": "BuddhaNet (India)",
      "address": "P.O/P.S BORDUMSA,DISTRICT:- CHANGLANG, ARUNACHAL PRADESH Bordumsa Arunachal Pradesh 792056",
      "phone": "9863414798/9854266436",
      "website": "http://mapof.it/P.O/P.S"
    },
    {
      "id": "f534c8b025ea",
      "name": "Borisu Vipassana Meditation Center",
      "lat": 36.638392,
      "lng": 127.696119,
      "tradition": "Theravada",
      "faith": "Buddhist",
      "type": "Meditation Center",
      "folder": "BuddhaNet (Korea)",
      "address": "370-7,Gwacheon-dong,Gwacheon City. Kyunggi-do",
      "phone": "02-517-2841",
      "website": "http://mapof.it/370-7,Gwacheon-dong,Gwacheon"
    },
    {
      "id": "7a6a1448e5ae",
      "name": "Boston Karma Kagyu Study Group",
      "lat": 42.378877,
      "lng": -72.032366,
      "tradition": "Tibetan",
      "faith": "Buddhist",
      "type": "Center",
      "folder": "BuddhaNet (United States of America)",
      "address": "210 South St, Unit 1 Boston, MA 02111 USA Boston 02111",
      "phone": "03 9842 5972",
      "website": "http://mapof.it/210"
    },
    {
      "id": "de60009673a8",
      "name": "Bouddha Yuvak Sangha, Indore",
      "lat": 23.814342,
      "lng": 77.534072,
      "tradition": "Buddhist",
      "faith": "Buddhist",
      "type": "Center",
      "folder": "BuddhaNet (India)",
      "address": "216,Siddhartha Nagar,Near marimata ka bageecha, Juni Indore, Indore Madhya Pradesh Pin-452007 India Indore Madhya Pradesh 452007",
      "phone": "+919827072018",
      "website": "soon.</strong></p></p>"
    },
    {
      "id": "38bbb84e727b",
      "name": "Bouddhique Khmere",
      "lat": 46.603354,
      "lng": 1.888334,
      "tradition": "Buddhist",
      "faith": "Buddhist",
      "type": "Center",
      "folder": "BuddhaNet (France)",
      "address": "Roubaix 59100",
      "phone": "03 20 73 53 57",
      "website": "http://mapof.it/Roubaix"
    },
    {
      "id": "02f01736a684",
      "name": "Bouddhique Linh Son Association - Camon",
      "lat": 46.603354,
      "lng": 1.888334,
      "tradition": "Buddhist",
      "faith": "Buddhist",
      "type": "Center",
      "folder": "BuddhaNet (France)",
      "address": "Cultuelle Le Galion \\\"B\\\" 34280 Camon",
      "phone": "04 67 68 55 94",
      "website": "http://mapof.it/Cultuelle"
    },
    {
      "id": "638656195ac9",
      "name": "Boudh Dhamma Prachar Manch",
      "lat": 22.351115,
      "lng": 78.667743,
      "tradition": "Buddhist",
      "faith": "Buddhist",
      "type": "Center",
      "folder": "BuddhaNet (India)",
      "address": "18/314, KALYAN PURI Delhi 110091",
      "phone": "011-22772049, 09718538471",
      "website": "http://mapof.it/18/314"
    },
    {
      "id": "3407fafaafd2",
      "name": "Boudha Dhamma Sanskar Sangha",
      "lat": 22.351115,
      "lng": 78.667743,
      "tradition": "Theravada",
      "faith": "Buddhist",
      "type": "Center",
      "folder": "BuddhaNet (India)",
      "address": "Shravasti Vihar Sanjay Nagar Sangali, Maharastra 416416",
      "phone": null,
      "website": "http://mapof.it/Shravasti"
    },
    {
      "id": "d1f9e50e3994",
      "name": "Boulder Dharma Punx-Against The Stream Buddhist Meditation Group",
      "lat": 38.725178,
      "lng": -105.607716,
      "tradition": "Buddhist",
      "faith": "Buddhist",
      "type": "Meditation Center",
      "folder": "BuddhaNet (United States of America)",
      "address": "Currently meeting at Boulder Shambhala Center 1345 Spruce St. Boulder, CO Boulder 80302",
      "phone": null,
      "website": "http://mapof.it/Currently"
    },
    {
      "id": "6d6fcc5f0751",
      "name": "Boulder Morningstar Zen Center",
      "lat": 40.050542,
      "lng": -105.280208,
      "tradition": "Zen",
      "faith": "Buddhist",
      "type": "Center",
      "folder": "Zen, Chan, Son, & Thien,",
      "address": "1360 Sumac Avenue, Boulder, Colorado, 80304",
      "phone": null,
      "website": null
    },
    {
      "id": "2a378778c307",
      "name": "Boulder Shambhala Center",
      "lat": 40.019532,
      "lng": -105.277988,
      "tradition": "Tibetan",
      "faith": "Buddhist",
      "type": "Center",
      "folder": "Tibetan",
      "address": "1345 Spruce Street, Boulder, Colorado, 80302",
      "phone": "+1 303-442-6158",
      "website": "https://shjboulder.org/"
    },
    {
      "id": "9441b28b5232",
      "name": "Boulder Zen Center",
      "lat": 40.014938,
      "lng": -105.266613,
      "tradition": "Zen",
      "faith": "Buddhist",
      "type": "Center",
      "folder": "Zen, Chan, Son, & Thien,",
      "address": "2151 Arapahoe Avenue, Boulder, Colorado, 80302",
      "phone": null,
      "website": null
    },
    {
      "id": "6e378777afaf",
      "name": "Bow Valley Sangha",
      "lat": 61.066692,
      "lng": -107.991707,
      "tradition": "Buddhist",
      "faith": "Buddhist",
      "type": "Center",
      "folder": "BuddhaNet (Canada)",
      "address": "518 2nd Street, Canmore, Alberta T1W 2K5 Alberta",
      "phone": "(403) 678-2034",
      "website": "http://mapof.it/518"
    },
    {
      "id": "b57ab3983dad",
      "name": "Bozeman Dharma Center",
      "lat": 45.671836,
      "lng": -111.089225,
      "tradition": "Buddhist",
      "faith": "Buddhist",
      "type": "Center",
      "folder": "Other Buddhist Centers",
      "address": "3810 Valley Commons Drive, Bozeman, Montana, 59718",
      "phone": null,
      "website": null
    },
    {
      "id": "8b0cdd0ac65b",
      "name": "Brampton Buddhist Mission Centre",
      "lat": 61.066692,
      "lng": -107.991707,
      "tradition": "Buddhist",
      "faith": "Buddhist",
      "type": "Center",
      "folder": "BuddhaNet (Canada)",
      "address": "133a Main St. S., Brampton L6Y 1N2 Ontario",
      "phone": "(905) 454 6649",
      "website": "http://mapof.it/133a"
    },
    {
      "id": "a53792cc3369",
      "name": "Bread Loaf Mountain Zen Community",
      "lat": 44.007744,
      "lng": -73.161992,
      "tradition": "Zen",
      "faith": "Buddhist",
      "type": "Center",
      "folder": "Zen, Chan, Son, & Thien,",
      "address": "76 Court Street, Middlebury, Vermont, 05753",
      "phone": null,
      "website": null
    },
    {
      "id": "8af420a6afee",
      "name": "Breathing Heart Sangha",
      "lat": 39.78373,
      "lng": -100.445882,
      "tradition": "Buddhist",
      "faith": "Buddhist",
      "type": "Center",
      "folder": "BuddhaNet (United States of America)",
      "address": "",
      "phone": null,
      "website": null
    },
    {
      "id": "e265ef119102",
      "name": "Brighton Serene Reflection Meditation Group",
      "lat": 54.702354,
      "lng": -3.276575,
      "tradition": "Buddhist",
      "faith": "Buddhist",
      "type": "Meditation Center",
      "folder": "BuddhaNet (United Kingdom)",
      "address": "",
      "phone": "(0) 1273 552747",
      "website": null
    },
    {
      "id": "3b383d021c14",
      "name": "Bristol Kwan Um Zen Group",
      "lat": 54.702354,
      "lng": -3.276575,
      "tradition": "Zen",
      "faith": "Buddhist",
      "type": "Center",
      "folder": "BuddhaNet (United Kingdom)",
      "address": "Top Flat, 38 Picton Street, Bristol, BS6 5QA Bristol",
      "phone": "77 924-3194",
      "website": "http://mapof.it/Top"
    },
    {
      "id": "e7226279a3e9",
      "name": "Brno Zen Group",
      "lat": 49.743905,
      "lng": 15.338106,
      "tradition": "Zen",
      "faith": "Buddhist",
      "type": "Center",
      "folder": "BuddhaNet (Czech Republic)",
      "address": "Tuckova 20 Brno 602 00 Czech Republic",
      "phone": "(+42) 5-752-040",
      "website": "http://mapof.it/Tuckova"
    },
    {
      "id": "55ff21e7ceeb",
      "name": "Brooklyn Buddhist Association International Zen Dojo",
      "lat": 40.712728,
      "lng": -74.006015,
      "tradition": "Zen",
      "faith": "Buddhist",
      "type": "Center",
      "folder": "BuddhaNet (United States of America)",
      "address": "211 Smith Street, Brooklyn, New York, NY 11201 NY",
      "phone": "718 488-9511",
      "website": "http://mapof.it/211"
    },
    {
      "id": "ec67fd03f09b",
      "name": "Brooklyn Zen Urban Temple",
      "lat": 40.712728,
      "lng": -74.006015,
      "tradition": "Zen",
      "faith": "Buddhist",
      "type": "Temple",
      "folder": "BuddhaNet (United States of America)",
      "address": "21 South Elliott Place, Brooklyn, NY 11217-1207 NY",
      "phone": "02- 9643 8633",
      "website": "http://mapof.it/21"
    },
    {
      "id": "be17149de844",
      "name": "Bruni Feist-Kramer Studien- u.Meditationskreis - Mettmann",
      "lat": 51.163818,
      "lng": 10.447831,
      "tradition": "Buddhist",
      "faith": "Buddhist",
      "type": "Meditation Center",
      "folder": "BuddhaNet (Germany)",
      "address": "40822 Mettmann, Dresdnerstr. 10",
      "phone": null,
      "website": "http://mapof.it/40822"
    },
    {
      "id": "ed7a194b09cb",
      "name": "Buddh. Zentrum KTL",
      "lat": 47.59397,
      "lng": 14.12456,
      "tradition": "Zen",
      "faith": "Buddhist",
      "type": "Center",
      "folder": "BuddhaNet (Austria)",
      "address": "Buddh. Zentrum KTL Vorarlberg Josef Huterstr.1 6900 Bregenz",
      "phone": null,
      "website": "http://mapof.it/Buddh"
    },
    {
      "id": "18e429c56ac4",
      "name": "Buddha Blessed Temple",
      "lat": 38.133012,
      "lng": -85.79201,
      "tradition": "Vietnamese",
      "faith": "Buddhist",
      "type": "Temple",
      "folder": "Vietnamese Temples",
      "address": "8457 Village Park Way, Louisville, Kentucky, 40214",
      "phone": null,
      "website": null
    },
    {
      "id": "520c708ddefd",
      "name": "Buddha Dhamma Centre",
      "lat": 4.569375,
      "lng": 102.265682,
      "tradition": "Theravada",
      "faith": "Buddhist",
      "type": "Center",
      "folder": "BuddhaNet (Malaysia)",
      "address": "(Also known as Buddha Dhamma Fellowship Association) 82, 2nd Floor, Jalan Pending (same row as May Bank, above Thompson Corner Pending) 93450 Kuching, Sarawak. Sarawak",
      "phone": "(6082) 333232",
      "website": "http://mapof.it/(Also"
    },
    {
      "id": "572fc52434d0",
      "name": "Buddha Dhamma Ramsi monastery",
      "lat": 63.246778,
      "lng": 25.920916,
      "tradition": "Theravada",
      "faith": "Buddhist",
      "type": "Monastery",
      "folder": "BuddhaNet (Finland)",
      "address": "Kuopio",
      "phone": null,
      "website": "http://mapof.it/Kuopio"
    },
    {
      "id": "8e0d3a9fdf70",
      "name": "Buddha Dhamma Temple",
      "lat": 23.973937,
      "lng": 120.982018,
      "tradition": "Theravada",
      "faith": "Buddhist",
      "type": "Temple",
      "folder": "BuddhaNet (Taiwan)",
      "address": "Toawyaun Chungli City Chungfur Road 622-1 Taiwan R.O.C.",
      "phone": "(03) 451-0266, 451-0891",
      "website": "http://mapof.it/Toawyaun"
    },
    {
      "id": "d935ca437e20",
      "name": "Buddha Dharma - OBF International",
      "lat": 46.119944,
      "lng": 14.815333,
      "tradition": "Buddhist",
      "faith": "Buddhist",
      "type": "Center",
      "folder": "BuddhaNet (Slovenia)",
      "address": "Hajdose 68 Hajdina 2288",
      "phone": null,
      "website": "http://mapof.it/Hajdose"
    },
    {
      "id": "3f8d1168b255",
      "name": "Buddha Foundation",
      "lat": 22.385005,
      "lng": 71.745261,
      "tradition": "Buddhist",
      "faith": "Buddhist",
      "type": "Center",
      "folder": "BuddhaNet (India)",
      "address": "Himorapark, Fatsar, Wadhwan, Dist-Surendranagar(Gujarat) India. Wadhwan 363030",
      "phone": "+919924494540; +919904278189",
      "website": "http://mapof.it/Himorapark"
    },
    {
      "id": "257c7942ecf5",
      "name": "Buddha Gate Monastery",
      "lat": 37.941548,
      "lng": -122.09512,
      "tradition": "Chinese",
      "faith": "Buddhist",
      "type": "Monastery",
      "folder": "Chinese Temple",
      "address": "Haslemere Drive, California, 94597",
      "phone": null,
      "website": null
    },
    {
      "id": "8a89407134d2",
      "name": "Buddha Gaya Bana Vihara & Meditation Center",
      "lat": 25.644085,
      "lng": 85.906508,
      "tradition": "Theravada",
      "faith": "Buddhist",
      "type": "Monastery",
      "folder": "BuddhaNet (India)",
      "address": "Katorwa Road, Behind 80 Ft Buddha Statue Bodh gaya, Bihar (INDIA) Bodh gaya 824231",
      "phone": "7085353644",
      "website": "http://mapof.it/Katorwa"
    },
    {
      "id": "7cc7e2637baa",
      "name": "Buddha Heart Sangha",
      "lat": 42.378877,
      "lng": -72.032366,
      "tradition": "Mahayana",
      "faith": "Buddhist",
      "type": "Center",
      "folder": "BuddhaNet (United States of America)",
      "address": "Haydenville MA 01039 Haydenville 01039",
      "phone": "413-588-7619",
      "website": "http://mapof.it/Haydenville"
    },
    {
      "id": "62dd5ded233b",
      "name": "Buddha Heart Village",
      "lat": 32.532583,
      "lng": -85.465201,
      "tradition": "Vietnamese",
      "faith": "Buddhist",
      "type": "Center",
      "folder": "Vietnamese Temples",
      "address": "3272 Sandhill Road, Auburn, Alabama, 36830",
      "phone": null,
      "website": null
    },
    {
      "id": "cfbd71358ccd",
      "name": "Buddha Jewel Monastery \u4f5b\u5bf6\u5bfa",
      "lat": 47.75548,
      "lng": -122.320704,
      "tradition": "Zen",
      "faith": "Buddhist",
      "type": "Monastery",
      "folder": "Zen, Chan, Son, & Thien,",
      "address": "17418 8th Avenue Northeast, Shoreline, Washington, 98155",
      "phone": null,
      "website": "https://www.buddhajewel.org"
    },
    {
      "id": "65de361caeca",
      "name": "Buddha Maitreya Study Group",
      "lat": 42.378877,
      "lng": -72.032366,
      "tradition": "Theravada",
      "faith": "Buddhist",
      "type": "Center",
      "folder": "BuddhaNet (United States of America)",
      "address": "1 South High Street. Apt. C Turners Falls, MA 01376 MA",
      "phone": "(413) 774-5154",
      "website": "http://mapof.it/1"
    },
    {
      "id": "ffef515deac1",
      "name": "Buddha Mind Monastery",
      "lat": 35.407686,
      "lng": -97.316685,
      "tradition": "Zen",
      "faith": "Buddhist",
      "type": "Monastery",
      "folder": "Zen, Chan, Son, & Thien,",
      "address": "5625 South Anderson Road, Oklahoma City, Oklahoma, 73150",
      "phone": null,
      "website": null
    },
    {
      "id": "de4800425428",
      "name": "Buddha Nature Club",
      "lat": 39.78373,
      "lng": -100.445882,
      "tradition": "Buddhist",
      "faith": "Buddhist",
      "type": "Center",
      "folder": "BuddhaNet (United States of America)",
      "address": "",
      "phone": "(858) 336-5749",
      "website": null
    },
    {
      "id": "ee5723060ac0",
      "name": "Buddha Raleigh Temple",
      "lat": 35.749034,
      "lng": -78.463795,
      "tradition": "Southeast Asian",
      "faith": "Buddhist",
      "type": "Temple",
      "folder": "Thai, Burmese, Lao, Cambodian, and Sri Lankan Temple",
      "address": "9026 Poole Road, North Carolina, 27545",
      "phone": null,
      "website": null
    },